{"serverTime":1724955206,"meta":{"movies":[{"id":"OB104Y","frmtId":"O0GvByvMx","name":"Gabbar Singh","imgPath":"https://assetscdn1.paytm.com/images/cinema/Gabbar-Singh--05x750-b8b2c670-642b-11ef-a843-85f89c69d392.jpg","appImgPath":"https://assetscdn1.paytm.com/images/cinema/Gabbar-Singh---608x800-bbf4ab00-642b-11ef-a843-85f89c69d392.jpg","cvrPath":"https://assetscdn1.paytm.com/images/cinema/Gabbar-Singh--bf1af140-642b-11ef-a843-85f89c69d392.jpg","appCvrPath":"https://assetscdn1.paytm.com/images/cinema/Gabbar-Singh--app-c1ea64f0-642b-11ef-ab88-c71a50c73cdf.jpg","thumbnail":null,"edgeBanner":"https://assetscdn1.paytm.com/images/cinema/Gabbar-Singh---035%E2%80%8A%C3%97%E2%80%8A420-c510d240-642b-11ef-a843-85f89c69d392.jpg","trailer":"https://youtu.be/FpFoQPj4sgs","censor":"U/A","duration":153,"grn":["Drama"],"scrnFmt":"2D","sndFmt":null,"rnr":{"hasUReview":0,"hasContent":1},"isNew":false,"imxImgUrl":null,"contentId":177361,"id":"OB104Y","label":"Gabbar Singh","lang":"Telugu"}],"filterBuckets":{"timeBuckets":[{"sTime":"05:00","eTime":"11:59","desc":"5:00 AM to 11:59 AM","dText":"Morning","desc1":"Till 12 PM"},{"sTime":"12:00","eTime":"15:59","desc":"12:00 PM to 3:59 PM","dText":"Afternoon","desc1":"Till 4 PM"},{"sTime":"16:00","eTime":"18:59","desc":"4:00 PM to 6:59 PM","dText":"Evening","desc1":"Till 7 PM"},{"sTime":"19:00","eTime":"04:59","desc":"7:00 PM to 4:59 AM","dText":"Night","desc1":"After 7 PM"}],"priceBuckets":[{"min":"0","max":"99","desc":"Below Rs 100"},{"min":"100","max":"199","desc":"Rs 100 - Rs 199"},{"min":"200","max":"299","desc":"Rs 200 - Rs 299"},{"min":"300","max":"399","desc":"Rs 300 - Rs 399"},{"min":"400","max":"NA","desc":"Rs 400 or above"}],"showTimeBuckets":[{"sTime":"00:00","eTime":"05:00","desc":"12 AM to 5 AM","dText":"Early Morning","desc1":"Till 5 AM"},{"sTime":"05:00","eTime":"12:00","desc":"5 AM to 12 PM","dText":"Morning","desc1":"Till 12 PM"},{"sTime":"12:00","eTime":"16:00","desc":"12 PM to 4 PM","dText":"Afternoon","desc1":"Till 4 PM"},{"sTime":"16:00","eTime":"19:00","desc":"4 PM to 7 PM","dText":"Evening","desc1":"Till 7 PM"},{"sTime":"19:00","eTime":"23:59","desc":"7 PM to 12 AM","dText":"Night","desc1":"Till 12 AM"}]},"amenities":[{"id":2,"name":"Parking","rank":1},{"id":1,"name":"Mobile Ticket","rank":2},{"id":3,"name":"Online Food","rank":3},{"id":5,"name":"Recliners","rank":4},{"id":6,"name":"Paytm Accepted","rank":5},{"id":4,"name":"Wheelchair Friendly","rank":6},{"id":7,"name":"RGB Laser","rank":7},{"id":8,"name":"Dolby Atmos","rank":8},{"id":9,"name":"IMAX","rank":9},{"id":10,"name":"4K","rank":10},{"id":11,"name":"AC","rank":11},{"id":12,"name":"WIFI","rank":12},{"id":13,"name":"Food Court","rank":13},{"id":14,"name":"Gaming Zone","rank":14},{"id":15,"name":"2K","rank":15},{"id":16,"name":"4D","rank":16},{"id":17,"name":"4DX","rank":17},{"id":18,"name":"Dolby 7.1","rank":18},{"id":19,"name":"Air conditioning","rank":19},{"id":20,"name":"Metro Train","rank":20},{"id":21,"name":"Sofa","rank":21},{"id":22,"name":"Social Seating","rank":22},{"id":23,"name":"Wheelchair Assistance","rank":23},{"id":24,"name":"Silver Screen","rank":24},{"id":25,"name":"Food & Beverages","rank":25},{"id":26,"name":"Paper Less Ticketing","rank":26},{"id":27,"name":"Handicapped Washroom","rank":27},{"id":28,"name":"Free Parking","rank":28},{"id":29,"name":"Baggage Counter","rank":29},{"id":30,"name":"Dolby 4 Way 11.1","rank":30},{"id":31,"name":"Barco 4K Ultra HD","rank":31}],"cinemas":[{"id":9505,"pid":335,"name":"Cinepolis: BSR Mall, OMR, Thoraipakkam","address":"BSR Mall, Thoraipakkam, Chennai, Tamil Nadu 600097, India","pincode":"600097","lat":12.949546,"lon":80.240275,"cityId":34,"appCovrImgUrl":"","covrImgUrl":"","fnb":0,"mTkt":1,"bCode":"694","sTop":0,"isMerchantCancellable":0,"cinemaLogoUrl":"https://assetscdn1.paytm.com/images/cinema/Cinepolis-d9681190-b391-11ee-8a1f-bfa09bf4348a.png","cinemaVideoUrl":"","appCoverVideoUrl":"","webCoverVideoUrl":"","amenities":{"2":1},"promos":null,"chainKey":"Cinepolis","contentId":149803,"theatreGroupName":"","amenitiesOrder":[{"id":2,"rank":1,"status":1}],"carouselAttachments":[],"isPassEnabled":0,"paytmCinemaId":9505,"city":"Chennai","clientId":"ticketnew","isMapped":0,"city_id":null,"is_city_mapped":null,"state":"tamil-nadu","id":9505,"city":"Chennai","state":"tamil-nadu","label":"Cinepolis: BSR Mall, OMR, Thoraipakkam","address":"BSR Mall, Thoraipakkam, Chennai, Tamil Nadu 600097, India","sessionCount":114},{"id":1020778,"pid":1707,"name":"INOX The Marina Mall OMR, Egatoor","address":"3rd Floor, The Marina Mall, Old Mahabalipuram Road, Egatoor, Chennai, Tami Nadu 603103, India","pincode":"603103","lat":12.836244,"lon":80.228681,"cityId":34,"appCovrImgUrl":"","covrImgUrl":"","fnb":0,"mTkt":1,"bCode":"0","sTop":0,"isMerchantCancellable":0,"cinemaLogoUrl":"https://assetscdn1.paytm.com/images/cinema/Inox%20(1)-207608e0-2335-11ef-a3d5-c9449a5ad550.png","cinemaVideoUrl":"","appCoverVideoUrl":"","webCoverVideoUrl":"","amenities":null,"promos":null,"chainKey":"PVR","contentId":174362,"theatreGroupName":"","amenitiesOrder":null,"carouselAttachments":[],"isPassEnabled":1,"paytmCinemaId":1020778,"city":"Chennai","clientId":"ticketnew","isMapped":0,"city_id":null,"is_city_mapped":null,"state":"tamil-nadu","id":1020778,"city":"Chennai","state":"tamil-nadu","label":"INOX The Marina Mall OMR, Egatoor","address":"3rd Floor, The Marina Mall, Old Mahabalipuram Road, Egatoor, Chennai, Tami Nadu 603103, India","sessionCount":105},{"id":3945,"pid":736,"name":"Rakki Cinemas 4K Dolby Atmos, Ambattur","address":"No: 1, Red Hills Road, Ambattur,Chennai,Tamil Nadu,600053","pincode":"600053","lat":13.122803,"lon":80.147461,"cityId":34,"appCovrImgUrl":"","covrImgUrl":"","fnb":0,"mTkt":1,"bCode":"0","sTop":0,"isMerchantCancellable":0,"cinemaLogoUrl":"https://assetscdn1.paytm.com/images/cinema/Rakki-Cinemas--TC-72d13ab0-0455-11ee-8dab-5be1c405de47.jpg","cinemaVideoUrl":"","appCoverVideoUrl":"","webCoverVideoUrl":"","amenities":{"2":1,"7":1,"8":1,"25":1,"10":1},"promos":null,"chainKey":"TicketNew","contentId":148472,"theatreGroupName":"","amenitiesOrder":[{"id":2,"rank":4,"status":1},{"id":7,"rank":5,"status":1},{"id":8,"rank":2,"status":1},{"id":10,"rank":1,"status":1},{"id":25,"rank":3,"status":1}],"carouselAttachments":[],"isPassEnabled":0,"paytmCinemaId":3945,"city":"Chennai","clientId":"ticketnew","isMapped":0,"city_id":null,"is_city_mapped":null,"state":"tamil-nadu","id":3945,"city":"Chennai","state":"tamil-nadu","label":"Rakki Cinemas 4K Dolby Atmos, Ambattur","address":"No: 1, Red Hills Road, Ambattur,Chennai,Tamil Nadu,600053","sessionCount":29},{"id":10185,"pid":1407,"name":"AGS Cinemas OMR Navlur","address":"Coromandel Plaza 87/1A, 5th Floor, Navalur, Old Mahabalipuram Road, Near ETA Techno Park Entrance, Chennai, Tamil Nadu 603103, India","pincode":"603103","lat":12.8505,"lon":80.2257,"cityId":34,"appCovrImgUrl":"","covrImgUrl":"","fnb":0,"mTkt":1,"bCode":"AGS","sTop":1,"isMerchantCancellable":0,"cinemaLogoUrl":"https://assetscdn1.paytm.com/images/cinema/ags-fd95c880-869e-11ed-babd-1b40982c99df.png","cinemaVideoUrl":"","appCoverVideoUrl":"","webCoverVideoUrl":"","amenities":null,"promos":null,"chainKey":"AGS Cinemas","contentId":150208,"theatreGroupName":"","amenitiesOrder":null,"carouselAttachments":[],"isPassEnabled":0,"paytmCinemaId":10185,"city":"Chennai","clientId":"ticketnew","isMapped":0,"city_id":null,"is_city_mapped":null,"state":"tamil-nadu","id":10185,"city":"Chennai","state":"tamil-nadu","label":"AGS Cinemas OMR Navlur","address":"Coromandel Plaza 87/1A, 5th Floor, Navalur, Old Mahabalipuram Road, Near ETA Techno Park Entrance, Chennai, Tamil Nadu 603103, India","sessionCount":96},{"id":10186,"pid":1407,"name":"AGS Cinemas Maduravoyal","address":"No 3/47, Alapakkam Main Road, Subramaniapuram, Pallavan Nagar, Chennai, Tamil Nadu 600095, India","pincode":"600095","lat":13.0601,"lon":80.164803,"cityId":34,"appCovrImgUrl":"","covrImgUrl":"","fnb":0,"mTkt":1,"bCode":"0","sTop":1,"isMerchantCancellable":0,"cinemaLogoUrl":"https://assetscdn1.paytm.com/images/cinema/ags-fd95c880-869e-11ed-babd-1b40982c99df.png","cinemaVideoUrl":"","appCoverVideoUrl":"","webCoverVideoUrl":"","amenities":null,"promos":null,"chainKey":"AGS Cinemas","contentId":150209,"theatreGroupName":"","amenitiesOrder":null,"carouselAttachments":[],"isPassEnabled":0,"paytmCinemaId":10186,"city":"Chennai","clientId":"ticketnew","isMapped":0,"city_id":null,"is_city_mapped":null,"state":"tamil-nadu","id":10186,"city":"Chennai","state":"tamil-nadu","label":"AGS Cinemas Maduravoyal","address":"No 3/47, Alapakkam Main Road, Subramaniapuram, Pallavan Nagar, Chennai, Tamil Nadu 600095, India","sessionCount":123},{"id":1022274,"pid":1707,"name":"PVR Inox Palazzo, The Nexus Vijaya Mall","address":"3rd Floor, 183, Arcot Road, Vadapalani, Nexus Vijaya Mall, Chennai, Tamil Nadu 600026, India","pincode":"600026","lat":13.050513,"lon":80.209534,"cityId":34,"appCovrImgUrl":"","covrImgUrl":"","fnb":0,"mTkt":1,"bCode":"0","sTop":0,"isMerchantCancellable":0,"cinemaLogoUrl":"https://assetscdn1.paytm.com/images/cinema/PVR%20(1)-bc359760-eb94-11ee-a5ac-93ab64e9977e.png","cinemaVideoUrl":"","appCoverVideoUrl":"","webCoverVideoUrl":"","amenities":null,"promos":null,"chainKey":"PVR","contentId":171868,"theatreGroupName":"","amenitiesOrder":null,"carouselAttachments":[],"isPassEnabled":1,"paytmCinemaId":1022274,"city":"Chennai","clientId":"ticketnew","isMapped":0,"city_id":null,"is_city_mapped":null,"state":"tamil-nadu","id":1022274,"city":"Chennai","state":"tamil-nadu","label":"PVR Inox Palazzo, The Nexus Vijaya Mall","address":"3rd Floor, 183, Arcot Road, Vadapalani, Nexus Vijaya Mall, Chennai, Tamil Nadu 600026, India","sessionCount":93},{"id":1022304,"pid":1707,"name":"PVR Inox VR Mall, Anna Nagar","address":"PVR Cinemas, 3rd Floor, VR Mall, MetroZone No 44, Pillaiyar Koil Street, Jawaharlal Nehru Road, Anna Nagar, Chennai, Tamil Nadu 600040, India","pincode":"600040","lat":13.0826,"lon":80.194801,"cityId":34,"appCovrImgUrl":"","covrImgUrl":"","fnb":0,"mTkt":1,"bCode":"0","sTop":0,"isMerchantCancellable":0,"cinemaLogoUrl":"https://assetscdn1.paytm.com/images/cinema/PVR%20(1)-190d7080-eb7b-11ee-a5ac-93ab64e9977e.png","cinemaVideoUrl":"","appCoverVideoUrl":"","webCoverVideoUrl":"","amenities":null,"promos":null,"chainKey":"PVR","contentId":171859,"theatreGroupName":"","amenitiesOrder":null,"carouselAttachments":[],"isPassEnabled":1,"paytmCinemaId":1022304,"city":"Chennai","clientId":"ticketnew","isMapped":0,"city_id":null,"is_city_mapped":null,"state":"tamil-nadu","id":1022304,"city":"Chennai","state":"tamil-nadu","label":"PVR Inox VR Mall, Anna Nagar","address":"PVR Cinemas, 3rd Floor, VR Mall, MetroZone No 44, Pillaiyar Koil Street, Jawaharlal Nehru Road, Anna Nagar, Chennai, Tamil Nadu 600040, India","sessionCount":125},{"id":1030432,"pid":3,"name":"Miraj Cinemas Sekaran Mall, Chennai","address":"Sekaran Mall, 4th & 5th Floor, Survey No.452(3), Village Perumbakkam, Taluk Sholinganallur, Kancheepuram, Tamil Nadu 600100, India","pincode":"600100","lat":12.90768,"lon":80.207893,"cityId":34,"appCovrImgUrl":"","covrImgUrl":"","fnb":0,"mTkt":1,"bCode":"0","sTop":0,"isMerchantCancellable":1,"cinemaLogoUrl":"https://assetscdn1.paytm.com/images/cinema/Miraj%20logo-2c80ab50-338d-11ef-95aa-f7343890830b.png","cinemaVideoUrl":"","appCoverVideoUrl":"","webCoverVideoUrl":"","amenities":null,"promos":null,"chainKey":"miraj","contentId":175230,"theatreGroupName":"","amenitiesOrder":null,"carouselAttachments":[],"isPassEnabled":0,"paytmCinemaId":1030432,"city":"Chennai","clientId":"ticketnew","isMapped":0,"city_id":null,"is_city_mapped":null,"state":"tamil-nadu","id":1030432,"city":"Chennai","state":"tamil-nadu","label":"Miraj Cinemas Sekaran Mall, Chennai","address":"Sekaran Mall, 4th & 5th Floor, Survey No.452(3), Village Perumbakkam, Taluk Sholinganallur, Kancheepuram, Tamil Nadu 600100, India","sessionCount":54},{"id":1022271,"pid":1707,"name":"PVR Inox Grand Mall, Velachery","address":"3rd Floor, Grand Square Mall, No.137, Tambaram Velachery Road, V.O.C Nagar, Doctor Seetaram Nagar, Chennai, Tamil Nadu 600042, India","pincode":"600042","lat":12.971955,"lon":80.220428,"cityId":34,"appCovrImgUrl":"","covrImgUrl":"","fnb":0,"mTkt":1,"bCode":"0","sTop":0,"isMerchantCancellable":0,"cinemaLogoUrl":"https://assetscdn1.paytm.com/images/cinema/PVR%20(1)-37814420-eb7a-11ee-be5f-7b4a82c5f7e3.png","cinemaVideoUrl":"","appCoverVideoUrl":"","webCoverVideoUrl":"","amenities":null,"promos":null,"chainKey":"PVR","contentId":171858,"theatreGroupName":"","amenitiesOrder":null,"carouselAttachments":[],"isPassEnabled":1,"paytmCinemaId":1022271,"city":"Chennai","clientId":"ticketnew","isMapped":0,"city_id":null,"is_city_mapped":null,"state":"tamil-nadu","id":1022271,"city":"Chennai","state":"tamil-nadu","label":"PVR Inox Grand Mall, Velachery","address":"3rd Floor, Grand Square Mall, No.137, Tambaram Velachery Road, V.O.C Nagar, Doctor Seetaram Nagar, Chennai, Tamil Nadu 600042, India","sessionCount":64},{"id":3953,"pid":736,"name":"Vidya Theatre 4K Dolby Atmos, Tambaram (W)","address":"No: 9, Kakkan Street, Tambaram West,Chennai,Tamil Nadu,600045","pincode":"600045","lat":12.926053,"lon":80.111589,"cityId":34,"appCovrImgUrl":"","covrImgUrl":"","fnb":0,"mTkt":1,"bCode":"0","sTop":0,"isMerchantCancellable":0,"cinemaLogoUrl":"https://assetscdn1.paytm.com/images/cinema/Vidys-48c32d90-0c03-11ee-8cb2-05fdd2ea0ec1.png","cinemaVideoUrl":"","appCoverVideoUrl":"","webCoverVideoUrl":"","amenities":{"1":-1,"2":1,"3":-1,"4":-1,"5":-1,"6":-1,"7":1,"10":1},"promos":null,"chainKey":"TicketNew","contentId":148475,"theatreGroupName":"","amenitiesOrder":[{"id":1,"rank":2,"status":-1},{"id":2,"rank":1,"status":1},{"id":3,"rank":3,"status":-1},{"id":4,"rank":6,"status":-1},{"id":5,"rank":4,"status":-1},{"id":6,"rank":5,"status":-1},{"id":7,"rank":9,"status":1},{"id":10,"rank":8,"status":1}],"carouselAttachments":[],"isPassEnabled":0,"paytmCinemaId":3953,"city":"Chennai","clientId":"ticketnew","isMapped":0,"city_id":null,"is_city_mapped":null,"state":"tamil-nadu","id":3953,"city":"Chennai","state":"tamil-nadu","label":"Vidya Theatre 4K Dolby Atmos, Tambaram (W)","address":"No: 9, Kakkan Street, Tambaram West,Chennai,Tamil Nadu,600045","sessionCount":7},{"id":3956,"pid":736,"name":"Murugan Cinemas PLF 4K, Ambattur","address":"No: 10, O.V. Alagesan Nagar, Near Ambattur Railway Station,Chennai,Tamil Nadu,600053","pincode":"600053","lat":13.113544,"lon":80.157257,"cityId":34,"appCovrImgUrl":"","covrImgUrl":"","fnb":0,"mTkt":1,"bCode":"0","sTop":0,"isMerchantCancellable":0,"cinemaLogoUrl":"https://assetscdn1.paytm.com/images/cinema/Murugan-cinema-ambattur-9d506350-cdfb-11ed-9242-39e1a294ee84.png","cinemaVideoUrl":"","appCoverVideoUrl":"","webCoverVideoUrl":"","amenities":{"1":-1,"2":1,"19":1,"3":-1,"4":-1,"21":1,"5":-1,"6":-1,"7":1,"8":1,"10":1},"promos":null,"chainKey":"TicketNew","contentId":148477,"theatreGroupName":"","amenitiesOrder":[{"id":1,"rank":2,"status":-1},{"id":2,"rank":1,"status":1},{"id":3,"rank":3,"status":-1},{"id":4,"rank":6,"status":-1},{"id":5,"rank":4,"status":-1},{"id":6,"rank":5,"status":-1},{"id":7,"rank":11,"status":1},{"id":8,"rank":10,"status":1},{"id":10,"rank":8,"status":1},{"id":19,"rank":9,"status":1},{"id":21,"rank":7,"status":1}],"carouselAttachments":[{"type":"IMAGE","assetPosition":1.0,"appImageUrl":"https://assetscdn1.paytm.com/images/cinema/BG2-81cb06d0-2af3-11ee-b34d-05fa8644d6a7.jpg","webImageUrl":"https://assetscdn1.paytm.com/images/cinema/BG2-web-86113c00-2af3-11ee-b34d-05fa8644d6a7.jpg"},{"type":"IMAGE","assetPosition":2.0,"appImageUrl":"https://assetscdn1.paytm.com/images/cinema/BG2%20(1)-5396f2e0-2b9f-11ee-b34d-05fa8644d6a7.jpg","webImageUrl":"https://assetscdn1.paytm.com/images/cinema/BG2-web%20(1)-5a3d3820-2b9f-11ee-a540-ef1242eadacd.jpg"}],"isPassEnabled":0,"paytmCinemaId":3956,"city":"Chennai","clientId":"ticketnew","isMapped":0,"city_id":null,"is_city_mapped":null,"state":"tamil-nadu","id":3956,"city":"Chennai","state":"tamil-nadu","label":"Murugan Cinemas PLF 4K, Ambattur","address":"No: 10, O.V. Alagesan Nagar, Near Ambattur Railway Station,Chennai,Tamil Nadu,600053","sessionCount":29},{"id":1024343,"pid":1801,"name":"EVP Cinemas, Chennai","address":"08, Survey No 167/4A, 3A, EVP Santhosha Nagar, Chennai - Bangalore National Highway, Chennai, Tamil Nadu 600123, India","pincode":"600123","lat":13.036485,"lon":80.047944,"cityId":34,"appCovrImgUrl":"","covrImgUrl":"","fnb":0,"mTkt":1,"bCode":"0","sTop":0,"isMerchantCancellable":0,"cinemaLogoUrl":"https://assetscdn1.paytm.com/images/cinema/EVP-ceeb7890-e147-11ee-a3c7-f5f87f3f5d73.png","cinemaVideoUrl":"","appCoverVideoUrl":"","webCoverVideoUrl":"","amenities":null,"promos":null,"chainKey":"EVP Cinema","contentId":171242,"theatreGroupName":"","amenitiesOrder":null,"carouselAttachments":[],"isPassEnabled":0,"paytmCinemaId":1024343,"city":"Chennai","clientId":"ticketnew","isMapped":0,"city_id":null,"is_city_mapped":null,"state":"tamil-nadu","id":1024343,"city":"Chennai","state":"tamil-nadu","label":"EVP Cinemas, Chennai","address":"08, Survey No 167/4A, 3A, EVP Santhosha Nagar, Chennai - Bangalore National Highway, Chennai, Tamil Nadu 600123, India","sessionCount":54},{"id":1022258,"pid":1707,"name":"PVR Inox Ampa Skywalk Mall, Aminjikarai","address":"4th Floor, Ampa Skywalk Mall, Nelson Manickam Road, Aminjikarai, Chennai, Tamil Nadu 600029, India","pincode":"600029","lat":13.07356,"lon":80.221456,"cityId":34,"appCovrImgUrl":"","covrImgUrl":"","fnb":0,"mTkt":1,"bCode":"0","sTop":0,"isMerchantCancellable":0,"cinemaLogoUrl":"https://assetscdn1.paytm.com/images/cinema/PVR%20(1)-6a907900-eb78-11ee-be5f-7b4a82c5f7e3.png","cinemaVideoUrl":"","appCoverVideoUrl":"","webCoverVideoUrl":"","amenities":null,"promos":null,"chainKey":"PVR","contentId":171857,"theatreGroupName":"","amenitiesOrder":null,"carouselAttachments":[],"isPassEnabled":1,"paytmCinemaId":1022258,"city":"Chennai","clientId":"ticketnew","isMapped":0,"city_id":null,"is_city_mapped":null,"state":"tamil-nadu","id":1022258,"city":"Chennai","state":"tamil-nadu","label":"PVR Inox Ampa Skywalk Mall, Aminjikarai","address":"4th Floor, Ampa Skywalk Mall, Nelson Manickam Road, Aminjikarai, Chennai, Tamil Nadu 600029, India","sessionCount":88},{"id":1020784,"pid":1707,"name":"PVR SKLS Galaxy Mall, Red Hills, Chennai","address":"4th Floor, SKLS Galaxy Mall, Survey No. 93/IC/2B, GNT Road Red Hills, Chennai 600052, India","pincode":"600052","lat":13.191512,"lon":80.18602,"cityId":34,"appCovrImgUrl":"","covrImgUrl":"","fnb":0,"mTkt":1,"bCode":"0","sTop":0,"isMerchantCancellable":0,"cinemaLogoUrl":"https://assetscdn1.paytm.com/images/cinema/PVR%20(1)-ff10f5f0-d87c-11ee-8171-7df0cded886f.png","cinemaVideoUrl":"","appCoverVideoUrl":"","webCoverVideoUrl":"","amenities":null,"promos":null,"chainKey":"PVR","contentId":169522,"theatreGroupName":"","amenitiesOrder":null,"carouselAttachments":[],"isPassEnabled":1,"paytmCinemaId":1020784,"city":"Chennai","clientId":"ticketnew","isMapped":0,"city_id":null,"is_city_mapped":null,"state":"tamil-nadu","id":1020784,"city":"Chennai","state":"tamil-nadu","label":"PVR SKLS Galaxy Mall, Red Hills, Chennai","address":"4th Floor, SKLS Galaxy Mall, Survey No. 93/IC/2B, GNT Road Red Hills, Chennai 600052, India","sessionCount":66}],"filterData":{"minSTime":"03:30","maxSTime":"17:05","minPrice":61.15,"maxPrice":202.84,"premium":false,"freeSeats":false,"groupSeats":false,"tokenFeeSeats":false,"scnFrmts":["2D"],"sndFrmts":[],"mLangs":["Telugu"],"genres":["Drama"]}},"data":{"pageSize":100,"cinemasOrder":[3945,3956,1024343,3953,10186,10185,9505,1020778,1022274,1022304,1030432,1022271,1022258,1020784],"sessionDates":["2024-09-01","2024-09-02","2024-09-03","2024-09-04"]},"pageData":{"sessions":{"9505":[{"sid":"55886","pid":335,"pkey":"vista_common_food","cid":9505,"mid":"OB104Y","fid":"O0GvByvMx","showTime":"2024-09-01T07:10","closeTime":"2024-09-01T07:09","mandatoryItems":[],"areas":[{"code":"0000000000","label":"NORMAL","typeCode":"0002","sType":"fixed","sAvail":0,"sTotal":17,"price":63.73,"statusColor":"D"},{"code":"0000000002","label":"EXECUTIVE","typeCode":"0001","sType":"fixed","sAvail":31,"sTotal":152,"price":148.56,"statusColor":"Y"}],"total":169,"avail":31,"audi":"AUDI 4","premium":0,"premiumLabel":"DOLBY 7.1","tFeePkupTime":0,"sType":0,"tFee":0,"grpSeats":0,"maxTkt":10,"lang":"Telugu","scrnFmt":"2D","gnrs":["Drama"],"statusColor":"Y","subtitle":""},{"sid":"55887","pid":335,"pkey":"vista_common_food","cid":9505,"mid":"OB104Y","fid":"O0GvByvMx","showTime":"2024-09-01T04:00","closeTime":"2024-09-01T03:59","mandatoryItems":[],"areas":[{"code":"0000000000","label":"NORMAL","typeCode":"0002","sType":"fixed","sAvail":0,"sTotal":17,"price":63.73,"statusColor":"D"},{"code":"0000000002","label":"EXECUTIVE","typeCode":"0001","sType":"fixed","sAvail":129,"sTotal":152,"price":148.56,"statusColor":"G"}],"total":169,"avail":129,"audi":"AUDI 4","premium":0,"premiumLabel":"DOLBY 7.1","tFeePkupTime":0,"sType":0,"tFee":0,"grpSeats":0,"maxTkt":10,"lang":"Telugu","scrnFmt":"2D","gnrs":["Drama"],"statusColor":"G","subtitle":""},{"sid":"55888","pid":335,"pkey":"vista_common_food","cid":9505,"mid":"OB104Y","fid":"O0GvByvMx","showTime":"2024-09-01T13:20","closeTime":"2024-09-01T13:19","mandatoryItems":[],"areas":[{"code":"0000000000","label":"NORMAL","typeCode":"0002","sType":"fixed","sAvail":0,"sTotal":17,"price":63.73,"statusColor":"D"},{"code":"0000000002","label":"EXECUTIVE","typeCode":"0001","sType":"fixed","sAvail":19,"sTotal":152,"price":148.56,"statusColor":"Y"}],"total":169,"avail":19,"audi":"AUDI 4","premium":0,"premiumLabel":"DOLBY 7.1","tFeePkupTime":0,"sType":0,"tFee":0,"grpSeats":0,"maxTkt":10,"lang":"Telugu","scrnFmt":"2D","gnrs":["Drama"],"statusColor":"Y","subtitle":""}],"1020778":[{"sid":"60632","pid":1707,"pkey":"showbizz","cid":1020778,"mid":"OB104Y","fid":"O0GvByvMx","showTime":"2024-09-01T10:20","closeTime":"2024-09-01T10:19","mandatoryItems":[],"areas":[{"code":"CL","label":"CLUB","typeCode":"60632_CL","sType":"fixed","sAvail":94,"sTotal":126,"price":144.9,"statusColor":"G"},{"code":"EX","label":"EXECUTIVE","typeCode":"60632_EX","sType":"fixed","sAvail":1,"sTotal":16,"price":61.15,"statusColor":"R"}],"total":142,"avail":95,"audi":"SCREEN 7","premium":0,"tFeePkupTime":0,"sType":0,"tFee":0,"grpSeats":0,"maxTkt":10,"lang":"Telugu","scrnFmt":"2D","gnrs":["Drama"],"statusColor":"G"}],"3945":[{"sid":"23037__1725161400__21__141763","pid":736,"pkey":"ticketnew","cid":3945,"mid":"OB104Y","fid":"O0GvByvMx","showTime":"2024-09-01T03:30","closeTime":"2024-09-01T03:15","mandatoryItems":[],"areas":[{"code":"4","label":"PREMIUM","typeCode":"23037__1725161400__21__141763_PREMIUM","sType":"fixed","sAvail":106,"sTotal":106,"price":150.0,"statusColor":"G"},{"code":"5","label":"EXECUTIVE","typeCode":"23037__1725161400__21__141763_EXECUTIVE","sType":"fixed","sAvail":96,"sTotal":104,"price":130.0,"statusColor":"G"}],"total":210,"avail":202,"audi":"MiniRakki - DOLBY ATMOS","premium":0,"premiumLabel":"MINI","tFeePkupTime":0,"sType":0,"tFee":0,"grpSeats":0,"maxTkt":10,"lang":"Telugu","scrnFmt":"2D","gnrs":["Drama"],"statusColor":"G","subtitle":""}],"10185":[{"sid":"28718","pid":1407,"pkey":"vista_common_food","cid":10185,"mid":"OB104Y","fid":"O0GvByvMx","showTime":"2024-09-01T16:50","closeTime":"2024-09-01T14:50","mandatoryItems":[],"areas":[{"code":"0000000002","label":"PEARL","typeCode":"0002","sType":"fixed","sAvail":0,"sTotal":34,"price":63.0,"statusColor":"D"},{"code":"0000000001","label":"DIAMOND","typeCode":"0001","sType":"fixed","sAvail":0,"sTotal":302,"price":160.0,"statusColor":"D"}],"total":336,"avail":0,"audi":"SCREEN 2","lang":"Telugu","scrnFmt":"2D","gnrs":["Drama"],"statusColor":"D","subtitle":""},{"sid":"28717","pid":1407,"pkey":"vista_common_food","cid":10185,"mid":"OB104Y","fid":"O0GvByvMx","showTime":"2024-09-01T10:45","closeTime":"2024-09-01T08:45","mandatoryItems":[],"areas":[{"code":"0000000002","label":"PEARL","typeCode":"0002","sType":"fixed","sAvail":0,"sTotal":34,"price":63.0,"statusColor":"D"},{"code":"0000000001","label":"DIAMOND","typeCode":"0001","sType":"fixed","sAvail":0,"sTotal":302,"price":160.0,"statusColor":"D"}],"total":336,"avail":0,"audi":"SCREEN 2","lang":"Telugu","scrnFmt":"2D","gnrs":["Drama"],"statusColor":"D","subtitle":""},{"sid":"28892","pid":1407,"pkey":"vista_common_food","cid":10185,"mid":"OB104Y","fid":"O0GvByvMx","showTime":"2024-09-01T13:45","closeTime":"2024-09-01T11:45","mandatoryItems":[],"areas":[{"code":"0000000002","label":"PEARL","typeCode":"0002","sType":"fixed","sAvail":0,"sTotal":34,"price":63.0,"statusColor":"D"},{"code":"0000000001","label":"DIAMOND","typeCode":"0001","sType":"fixed","sAvail":134,"sTotal":302,"price":160.0,"statusColor":"G"}],"total":336,"avail":134,"audi":"SCREEN 2","premium":0,"premiumLabel":"4K DOLBY 7.1","tFeePkupTime":0,"sType":0,"tFee":0,"grpSeats":0,"maxTkt":10,"lang":"Telugu","scrnFmt":"2D","gnrs":["Drama"],"statusColor":"Y","subtitle":""}],"10186":[{"sid":"34341","pid":1407,"pkey":"vista_common_food","cid":10186,"mid":"OB104Y","fid":"O0GvByvMx","showTime":"2024-09-01T13:40","closeTime":"2024-09-01T11:40","mandatoryItems":[],"areas":[{"code":"0000000002","label":"PEARL","typeCode":"0002","sType":"fixed","sAvail":0,"sTotal":24,"price":63.0,"statusColor":"D"},{"code":"0000000001","label":"DIAMOND","typeCode":"0001","sType":"fixed","sAvail":195,"sTotal":237,"price":160.0,"statusColor":"G"}],"total":261,"avail":195,"audi":"SCREEN 5","premium":0,"premiumLabel":"4K DOLBY 7.1","tFeePkupTime":0,"sType":0,"tFee":0,"grpSeats":0,"maxTkt":10,"lang":"Telugu","scrnFmt":"2D","gnrs":["Drama"],"statusColor":"G","subtitle":""}],"1022274":[{"sid":"6329","pid":1707,"pkey":"showbizz","cid":1022274,"mid":"OB104Y","fid":"O0GvByvMx","showTime":"2024-09-01T10:15","closeTime":"2024-09-01T10:14","mandatoryItems":[],"areas":[{"code":"BU","label":"BUDGET","typeCode":"6329_BU","sType":"fixed","sAvail":26,"sTotal":27,"price":61.15,"statusColor":"G"},{"code":"EL","label":"ELITE","typeCode":"6329_EL","sType":"fixed","sAvail":165,"sTotal":165,"price":130.63,"statusColor":"G"}],"total":192,"avail":191,"audi":"AUDI 6","premium":0,"tFeePkupTime":0,"sType":0,"tFee":0,"grpSeats":0,"maxTkt":10,"lang":"Telugu","scrnFmt":"2D","gnrs":["Drama"],"statusColor":"G"}],"1022304":[{"sid":"7348","pid":1707,"pkey":"showbizz","cid":1022304,"mid":"OB104Y","fid":"O0GvByvMx","showTime":"2024-09-01T17:05","closeTime":"2024-09-01T17:04","mandatoryItems":[],"areas":[{"code":"CL","label":"CLASSIC","typeCode":"7348_CL","sType":"fixed","sAvail":8,"sTotal":11,"price":61.15,"statusColor":"G"},{"code":"PR","label":"PRIME","typeCode":"7348_PR","sType":"fixed","sAvail":74,"sTotal":77,"price":129.33,"statusColor":"G"}],"total":88,"avail":82,"audi":"AUDI 08","premium":0,"tFeePkupTime":0,"sType":0,"tFee":0,"grpSeats":0,"maxTkt":10,"lang":"Telugu","scrnFmt":"2D","gnrs":["Drama"],"statusColor":"G"},{"sid":"7355","pid":1707,"pkey":"showbizz","cid":1022304,"mid":"OB104Y","fid":"O0GvByvMx","showTime":"2024-09-01T03:40","closeTime":"2024-09-01T03:39","mandatoryItems":[],"areas":[{"code":"CL","label":"CLASSIC","typeCode":"7355_CL","sType":"fixed","sAvail":16,"sTotal":16,"price":61.15,"statusColor":"G"},{"code":"PR","label":"PRIME","typeCode":"7355_PR","sType":"fixed","sAvail":83,"sTotal":88,"price":129.33,"statusColor":"G"}],"total":104,"avail":99,"audi":"AUDI 07","premium":0,"tFeePkupTime":0,"sType":0,"tFee":0,"grpSeats":0,"maxTkt":10,"lang":"Telugu","scrnFmt":"2D","gnrs":["Drama"],"statusColor":"G"}],"1030432":[{"sid":"1347","pid":3,"pkey":"miraj","cid":1030432,"mid":"OB104Y","fid":"O0GvByvMx","showTime":"2024-09-01T10:00","closeTime":"2024-09-01T09:59","mandatoryItems":[],"areas":[{"code":"0000000002","label":"SPECIAL","typeCode":"0001","sType":"fixed","sAvail":4,"sTotal":10,"price":63.73,"statusColor":"G"},{"code":"0000000003","label":"EXECUTIVE","typeCode":"0002","sType":"fixed","sAvail":100,"sTotal":100,"price":202.84,"statusColor":"G"}],"total":110,"avail":104,"audi":"SCREEN 4","premium":0,"tFeePkupTime":0,"sType":0,"tFee":0,"grpSeats":0,"maxTkt":10,"lang":"Telugu","scrnFmt":"2D","gnrs":["Drama"],"statusColor":"G","subtitle":""}],"1022271":[{"sid":"3906","pid":1707,"pkey":"showbizz","cid":1022271,"mid":"OB104Y","fid":"O0GvByvMx","showTime":"2024-09-01T16:50","closeTime":"2024-09-01T16:49","mandatoryItems":[],"areas":[{"code":"CC","label":"CLASSIC","typeCode":"3906_CC","sType":"fixed","sAvail":0,"sTotal":40,"price":61.15,"statusColor":"D"},{"code":"PE","label":"PRIME","typeCode":"3906_PE","sType":"fixed","sAvail":134,"sTotal":136,"price":130.63,"statusColor":"G"}],"total":176,"avail":134,"audi":"AUDI 05","premium":0,"tFeePkupTime":0,"sType":0,"tFee":0,"grpSeats":0,"maxTkt":10,"lang":"Telugu","scrnFmt":"2D","gnrs":["Drama"],"statusColor":"G"}],"3953":[{"sid":"23037__1725161400__142__32108","pid":736,"pkey":"ticketnew","cid":3953,"mid":"OB104Y","fid":"O0GvByvMx","showTime":"2024-09-01T03:30","closeTime":"2024-09-01T03:00","mandatoryItems":[],"areas":[{"code":"1","label":"BALCONY","typeCode":"23037__1725161400__142__32108_BALCONY","sType":"fixed","sAvail":3,"sTotal":64,"price":130.0,"statusColor":"R"},{"code":"2","label":"FIRST CLASS","typeCode":"23037__1725161400__142__32108_FIRST CLASS","sType":"fixed","sAvail":32,"sTotal":560,"price":110.0,"statusColor":"R"},{"code":"4","label":"SECOND CLASS","typeCode":"23037__1725161400__142__32108_SECOND CLASS","sType":"fixed","sAvail":53,"sTotal":54,"price":110.0,"statusColor":"G"}],"total":678,"avail":88,"audi":"Vidya Theatre 4K Dolby Atmos","premium":0,"tFeePkupTime":0,"sType":0,"tFee":0,"grpSeats":0,"maxTkt":10,"lang":"Telugu","scrnFmt":"2D","gnrs":["Drama"],"statusColor":"Y","subtitle":""}],"3956":[{"sid":"23037__1725165000__302__109948","pid":736,"pkey":"ticketnew","cid":3956,"mid":"OB104Y","fid":"O0GvByvMx","showTime":"2024-09-01T04:30","closeTime":"2024-09-01T04:25","mandatoryItems":[],"areas":[{"code":"1","label":"BOX 1","typeCode":"23037__1725165000__302__109948_BOX 1","sType":"fixed","sAvail":6,"sTotal":29,"price":150.0,"statusColor":"Y"},{"code":"2","label":"BOX 2","typeCode":"23037__1725165000__302__109948_BOX 2","sType":"fixed","sAvail":3,"sTotal":29,"price":150.0,"statusColor":"Y"},{"code":"3","label":"FIRST CLASS","typeCode":"23037__1725165000__302__109948_FIRST CLASS","sType":"fixed","sAvail":66,"sTotal":462,"price":130.0,"statusColor":"Y"}],"total":520,"avail":75,"audi":"ThiruMurugan PLF RGB LASER","premium":0,"premiumLabel":"THIRUMURUGAN","tFeePkupTime":0,"sType":0,"tFee":0,"grpSeats":0,"maxTkt":10,"lang":"Telugu","scrnFmt":"2D","gnrs":["Drama"],"statusColor":"Y","subtitle":""}],"1024343":[{"sid":"23037__1725163800__5904__8151","pid":1801,"pkey":"ticketnew","cid":1024343,"mid":"OB104Y","fid":"O0GvByvMx","showTime":"2024-09-01T04:10","closeTime":"2024-09-01T04:09","mandatoryItems":[],"areas":[{"code":"1","label":"ELITE","typeCode":"23037__1725163800__5904__8151_ELITE","sType":"fixed","sAvail":216,"sTotal":290,"price":162.24,"statusColor":"G"},{"code":"2","label":"ECONOMY","typeCode":"23037__1725163800__5904__8151_ECONOMY","sType":"fixed","sAvail":0,"sTotal":33,"price":63.8,"statusColor":"D"}],"total":323,"avail":216,"audi":"Screen 2 - 4k Dolby Atmos \n","premium":0,"premiumLabel":"4K DOLBY ATMOS","tFeePkupTime":0,"sType":0,"tFee":0,"grpSeats":0,"maxTkt":10,"lang":"Telugu","scrnFmt":"2D","gnrs":["Drama"],"statusColor":"G","subtitle":""}],"1022258":[{"sid":"5143","pid":1707,"pkey":"showbizz","cid":1022258,"mid":"OB104Y","fid":"O0GvByvMx","showTime":"2024-09-01T12:35","closeTime":"2024-09-01T12:34","mandatoryItems":[],"areas":[{"code":"CC","label":"CLASSIC","typeCode":"5143_CC","sType":"fixed","sAvail":0,"sTotal":17,"price":61.15,"statusColor":"D"},{"code":"PE","label":"PRIME","typeCode":"5143_PE","sType":"fixed","sAvail":116,"sTotal":116,"price":130.63,"statusColor":"G"}],"total":133,"avail":116,"audi":"AUDI 07","premium":0,"tFeePkupTime":0,"sType":0,"tFee":0,"grpSeats":0,"maxTkt":10,"lang":"Telugu","scrnFmt":"2D","gnrs":["Drama"],"statusColor":"G"}],"1020784":[{"sid":"5164","pid":1707,"pkey":"showbizz","cid":1020784,"mid":"OB104Y","fid":"O0GvByvMx","showTime":"2024-09-01T13:10","closeTime":"2024-09-01T13:09","mandatoryItems":[],"areas":[{"code":"CL","label":"CLASSIC","typeCode":"5164_CL","sType":"fixed","sAvail":0,"sTotal":16,"price":61.15,"statusColor":"D"},{"code":"PR","label":"PRIME","typeCode":"5164_PR","sType":"fixed","sAvail":71,"sTotal":71,"price":130.63,"statusColor":"G"}],"total":87,"avail":71,"audi":"AUDI 04","premium":0,"tFeePkupTime":0,"sType":0,"tFee":0,"grpSeats":0,"maxTkt":10,"lang":"Telugu","scrnFmt":"2D","gnrs":["Drama"],"statusColor":"G"}]}}}