{"serverTime":1725186048,"meta":{"movies":[{"id":"OB104Y","frmtId":"O0GvByvMx","name":"Gabbar Singh","imgPath":"https://assetscdn1.paytm.com/images/cinema/Gabbar-Singh--05x750-b8b2c670-642b-11ef-a843-85f89c69d392.jpg","appImgPath":"https://assetscdn1.paytm.com/images/cinema/Gabbar-Singh---608x800-bbf4ab00-642b-11ef-a843-85f89c69d392.jpg","cvrPath":"https://assetscdn1.paytm.com/images/cinema/Gabbar-Singh--bf1af140-642b-11ef-a843-85f89c69d392.jpg","appCvrPath":"https://assetscdn1.paytm.com/images/cinema/Gabbar-Singh--app-c1ea64f0-642b-11ef-ab88-c71a50c73cdf.jpg","thumbnail":null,"edgeBanner":"https://assetscdn1.paytm.com/images/cinema/Gabbar-Singh---035%E2%80%8A%C3%97%E2%80%8A420-c510d240-642b-11ef-a843-85f89c69d392.jpg","trailer":"https://youtu.be/FpFoQPj4sgs","censor":"U/A","duration":153,"grn":["Drama"],"scrnFmt":"2D","sndFmt":null,"rnr":{"hasUReview":0,"hasContent":1},"isNew":false,"imxImgUrl":null,"contentId":177361,"id":"OB104Y","label":"Gabbar Singh","lang":"Telugu"}],"filterBuckets":{"timeBuckets":[{"sTime":"05:00","eTime":"11:59","desc":"5:00 AM to 11:59 AM","dText":"Morning","desc1":"Till 12 PM"},{"sTime":"12:00","eTime":"15:59","desc":"12:00 PM to 3:59 PM","dText":"Afternoon","desc1":"Till 4 PM"},{"sTime":"16:00","eTime":"18:59","desc":"4:00 PM to 6:59 PM","dText":"Evening","desc1":"Till 7 PM"},{"sTime":"19:00","eTime":"04:59","desc":"7:00 PM to 4:59 AM","dText":"Night","desc1":"After 7 PM"}],"priceBuckets":[{"min":"0","max":"99","desc":"Below Rs 100"},{"min":"100","max":"199","desc":"Rs 100 - Rs 199"},{"min":"200","max":"299","desc":"Rs 200 - Rs 299"},{"min":"300","max":"399","desc":"Rs 300 - Rs 399"},{"min":"400","max":"NA","desc":"Rs 400 or above"}],"showTimeBuckets":[{"sTime":"00:00","eTime":"05:00","desc":"12 AM to 5 AM","dText":"Early Morning","desc1":"Till 5 AM"},{"sTime":"05:00","eTime":"12:00","desc":"5 AM to 12 PM","dText":"Morning","desc1":"Till 12 PM"},{"sTime":"12:00","eTime":"16:00","desc":"12 PM to 4 PM","dText":"Afternoon","desc1":"Till 4 PM"},{"sTime":"16:00","eTime":"19:00","desc":"4 PM to 7 PM","dText":"Evening","desc1":"Till 7 PM"},{"sTime":"19:00","eTime":"23:59","desc":"7 PM to 12 AM","dText":"Night","desc1":"Till 12 AM"}]},"amenities":[{"id":2,"name":"Parking","rank":1},{"id":1,"name":"Mobile Ticket","rank":2},{"id":3,"name":"Online Food","rank":3},{"id":5,"name":"Recliners","rank":4},{"id":6,"name":"Paytm Accepted","rank":5},{"id":4,"name":"Wheelchair Friendly","rank":6},{"id":7,"name":"RGB Laser","rank":7},{"id":8,"name":"Dolby Atmos","rank":8},{"id":9,"name":"IMAX","rank":9},{"id":10,"name":"4K","rank":10},{"id":11,"name":"AC","rank":11},{"id":12,"name":"WIFI","rank":12},{"id":13,"name":"Food Court","rank":13},{"id":14,"name":"Gaming Zone","rank":14},{"id":15,"name":"2K","rank":15},{"id":16,"name":"4D","rank":16},{"id":17,"name":"4DX","rank":17},{"id":18,"name":"Dolby 7.1","rank":18},{"id":19,"name":"Air conditioning","rank":19},{"id":20,"name":"Metro Train","rank":20},{"id":21,"name":"Sofa","rank":21},{"id":22,"name":"Social Seating","rank":22},{"id":23,"name":"Wheelchair Assistance","rank":23},{"id":24,"name":"Silver Screen","rank":24},{"id":25,"name":"Food & Beverages","rank":25},{"id":26,"name":"Paper Less Ticketing","rank":26},{"id":27,"name":"Handicapped Washroom","rank":27},{"id":28,"name":"Free Parking","rank":28},{"id":29,"name":"Baggage Counter","rank":29},{"id":30,"name":"Dolby 4 Way 11.1","rank":30},{"id":31,"name":"Barco 4K Ultra HD","rank":31}],"cinemas":[{"id":5122,"pid":55,"name":"Platinum Movietime Cinemas,Gachibowli (SLN Terminus)","address":"3rd Floor SLN Terminal, Gachibowli, Hyderabad, Telangana 500032, India","pincode":"500032","lat":17.452101,"lon":78.362801,"cityId":12,"appCovrImgUrl":"","covrImgUrl":"","fnb":0,"mTkt":1,"bCode":"1234","sTop":1,"isMerchantCancellable":0,"cinemaLogoUrl":"https://assetscdn1.paytm.com/images/cinema/movietime-63b885c0-86a0-11ed-babd-1b40982c99df.png","cinemaVideoUrl":"","appCoverVideoUrl":"","webCoverVideoUrl":"","amenities":{"1":1,"2":1,"3":1,"4":-1,"5":1,"6":1},"promos":null,"chainKey":"Movietime","contentId":149101,"theatreGroupName":"","amenitiesOrder":[{"id":1,"rank":2,"status":1},{"id":2,"rank":1,"status":1},{"id":3,"rank":3,"status":1},{"id":4,"rank":6,"status":-1},{"id":5,"rank":4,"status":1},{"id":6,"rank":5,"status":1}],"carouselAttachments":[],"isPassEnabled":0,"paytmCinemaId":5122,"city":"Hyderabad","clientId":"ticketnew","isMapped":0,"city_id":null,"is_city_mapped":null,"state":"telangana","id":5122,"city":"Hyderabad","state":"telangana","label":"Platinum Movietime Cinemas,Gachibowli (SLN Terminus)","address":"3rd Floor SLN Terminal, Gachibowli, Hyderabad, Telangana 500032, India","sessionCount":94},{"id":25026,"pid":3,"name":"Miraj Cinemas : Raghavendra, Hyderabad","address":"Miraj Cinemas : Raghavendra, Bus stand, Raghavendra Theatre Rd,Malkajgiri, Hyderabad, Telangana 500047, India","pincode":"500047","lat":17.451262,"lon":78.53598,"cityId":12,"appCovrImgUrl":"","covrImgUrl":"","fnb":0,"mTkt":1,"bCode":"0","sTop":0,"isMerchantCancellable":1,"cinemaLogoUrl":"https://assetscdn1.paytm.com/images/cinema/Miraj-logo-7521ad90-7c51-11ed-bf27-a3e7fc56533c.png","cinemaVideoUrl":"","appCoverVideoUrl":"","webCoverVideoUrl":"","amenities":null,"promos":null,"chainKey":"miraj","contentId":153375,"theatreGroupName":"","amenitiesOrder":null,"carouselAttachments":[],"isPassEnabled":0,"paytmCinemaId":25026,"city":"Hyderabad","clientId":"ticketnew","isMapped":0,"city_id":null,"is_city_mapped":null,"state":"telangana","id":25026,"city":"Hyderabad","state":"telangana","label":"Miraj Cinemas : Raghavendra, Hyderabad","address":"Miraj Cinemas : Raghavendra, Bus stand, Raghavendra Theatre Rd,Malkajgiri, Hyderabad, Telangana 500047, India","sessionCount":22},{"id":1022285,"pid":1707,"name":"PVR Inox Preston, Gachibowli Hyderabad","address":"Preston Mall, No: 62, Hitech City Main Road, Lumbini Avenue, Gachibowli, Hyderabad, Telangana 500081, India","pincode":"500081","lat":17.430802,"lon":78.373498,"cityId":12,"appCovrImgUrl":"","covrImgUrl":"","fnb":0,"mTkt":1,"bCode":"0","sTop":0,"isMerchantCancellable":0,"cinemaLogoUrl":"https://assetscdn1.paytm.com/images/cinema/PVR%20(1)-ff10f5f0-d87c-11ee-8171-7df0cded886f.png","cinemaVideoUrl":"","appCoverVideoUrl":"","webCoverVideoUrl":"","amenities":null,"promos":null,"chainKey":"PVR","contentId":170656,"theatreGroupName":"","amenitiesOrder":null,"carouselAttachments":[],"isPassEnabled":1,"paytmCinemaId":1022285,"city":"Hyderabad","clientId":"ticketnew","isMapped":0,"city_id":null,"is_city_mapped":null,"state":"telangana","id":1022285,"city":"Hyderabad","state":"telangana","label":"PVR Inox Preston, Gachibowli Hyderabad","address":"Preston Mall, No: 62, Hitech City Main Road, Lumbini Avenue, Gachibowli, Hyderabad, Telangana 500081, India","sessionCount":32},{"id":1022283,"pid":1707,"name":"PVR Inox Musarambagh New Malakpet, Hyderabad","address":"Hyderabad Next Galleria Musarambagh, TS No.2,5 & 6, Ward No.170, Level 5, Block-B, Gaddiannaram Village, Saidabad Mandal, Hyderabad, Telangana 500036, India","pincode":"500036","lat":17.371585,"lon":78.509279,"cityId":12,"appCovrImgUrl":"","covrImgUrl":"","fnb":0,"mTkt":1,"bCode":"0","sTop":0,"isMerchantCancellable":0,"cinemaLogoUrl":"https://assetscdn1.paytm.com/images/cinema/PVR%20(1)-ff10f5f0-d87c-11ee-8171-7df0cded886f.png","cinemaVideoUrl":"","appCoverVideoUrl":"","webCoverVideoUrl":"","amenities":null,"promos":null,"chainKey":"PVR","contentId":170650,"theatreGroupName":"","amenitiesOrder":null,"carouselAttachments":[],"isPassEnabled":1,"paytmCinemaId":1022283,"city":"Hyderabad","clientId":"ticketnew","isMapped":0,"city_id":null,"is_city_mapped":null,"state":"telangana","id":1022283,"city":"Hyderabad","state":"telangana","label":"PVR Inox Musarambagh New Malakpet, Hyderabad","address":"Hyderabad Next Galleria Musarambagh, TS No.2,5 & 6, Ward No.170, Level 5, Block-B, Gaddiannaram Village, Saidabad Mandal, Hyderabad, Telangana 500036, India","sessionCount":108},{"id":1022282,"pid":1707,"name":"PVR Inox Irrum Manzil, Khairatabad","address":"Level 5, Shop No.01, Hyderabad Next Galleria@Irrum Manzil, Survey No. TS.No.3/1, Ward No. 85, Block-E, Khairatabad, Hyderabad, Telangana 500082, India","pincode":"500082","lat":17.42155,"lon":78.454729,"cityId":12,"appCovrImgUrl":"","covrImgUrl":"","fnb":0,"mTkt":1,"bCode":"0","sTop":0,"isMerchantCancellable":0,"cinemaLogoUrl":"https://assetscdn1.paytm.com/images/cinema/PVR%20(1)-ff10f5f0-d87c-11ee-8171-7df0cded886f.png","cinemaVideoUrl":"","appCoverVideoUrl":"","webCoverVideoUrl":"","amenities":null,"promos":null,"chainKey":"PVR","contentId":170653,"theatreGroupName":"","amenitiesOrder":null,"carouselAttachments":[],"isPassEnabled":1,"paytmCinemaId":1022282,"city":"Hyderabad","clientId":"ticketnew","isMapped":0,"city_id":null,"is_city_mapped":null,"state":"telangana","id":1022282,"city":"Hyderabad","state":"telangana","label":"PVR Inox Irrum Manzil, Khairatabad","address":"Level 5, Shop No.01, Hyderabad Next Galleria@Irrum Manzil, Survey No. TS.No.3/1, Ward No. 85, Block-E, Khairatabad, Hyderabad, Telangana 500082, India","sessionCount":91},{"id":9478,"pid":1139,"name":"Sri Lakshmi Kalamandir 70mm A/C, Alwal","address":"Shop No: 14 - 69, Lothukunta Road, Lothkunta, Alwal, Secunderabad, Near Alwal City Bus Stop, Hyderabad, Telangana 500015, India","pincode":"500015","lat":17.494766,"lon":78.511196,"cityId":12,"appCovrImgUrl":"","covrImgUrl":"","fnb":0,"mTkt":1,"bCode":"0","sTop":0,"isMerchantCancellable":0,"cinemaLogoUrl":"https://assetscdn1.paytm.com/images/cinema/Theatre%403x-a4b1cf60-676c-11ef-8bfd-85c2f3bcaac6.png","cinemaVideoUrl":"","appCoverVideoUrl":"","webCoverVideoUrl":"","amenities":null,"promos":null,"chainKey":"Sri Lakshmi Kalamandir 70mm A/C","contentId":149787,"theatreGroupName":"","amenitiesOrder":null,"carouselAttachments":[],"isPassEnabled":0,"paytmCinemaId":9478,"city":"Hyderabad","clientId":"ticketnew","isMapped":0,"city_id":null,"is_city_mapped":null,"state":"telangana","id":9478,"city":"Hyderabad","state":"telangana","label":"Sri Lakshmi Kalamandir 70mm A/C, Alwal","address":"Shop No: 14 - 69, Lothukunta Road, Lothkunta, Alwal, Secunderabad, Near Alwal City Bus Stop, Hyderabad, Telangana 500015, India","sessionCount":18},{"id":13958,"pid":750,"name":"SVC Sri Lakshmi Theatre, Kharmanghat","address":"Thapovan Colony, Sai Nagar, Saroor Nagar East, Kharmanghat,Telangana 500035, India","pincode":"500035","lat":17.345749,"lon":78.531497,"cityId":12,"appCovrImgUrl":"","covrImgUrl":"","fnb":0,"mTkt":1,"bCode":"0","sTop":0,"isMerchantCancellable":0,"cinemaLogoUrl":"https://assetscdn1.paytm.com/images/cinema/svc-5551d580-869c-11ed-9b16-5b1b1e9f8842.png","cinemaVideoUrl":"","appCoverVideoUrl":"","webCoverVideoUrl":"","amenities":null,"promos":null,"chainKey":"SVC Sangeetha","contentId":153323,"theatreGroupName":"","amenitiesOrder":null,"carouselAttachments":[],"isPassEnabled":0,"paytmCinemaId":13958,"city":"Hyderabad","clientId":"ticketnew","isMapped":0,"city_id":null,"is_city_mapped":null,"state":"telangana","id":13958,"city":"Hyderabad","state":"telangana","label":"SVC Sri Lakshmi Theatre, Kharmanghat","address":"Thapovan Colony, Sai Nagar, Saroor Nagar East, Kharmanghat,Telangana 500035, India","sessionCount":15},{"id":1022281,"pid":1707,"name":"PVR Inox Next Galleria Mall Panjagutta","address":"Pvr Next Galleria Mall Panjagutta Opp. Panjaguttta Metro Station, 4Th Floor, Pvr Limited; Sy. No. 1/1, 1/2, 1/3, 3/2, 6/1 & 6/2 Ward No.89,; Panjagutta, Hyderabad, Telangana 500082, India","pincode":"500082","lat":17.429014,"lon":78.450247,"cityId":12,"appCovrImgUrl":"","covrImgUrl":"","fnb":0,"mTkt":1,"bCode":"0","sTop":0,"isMerchantCancellable":0,"cinemaLogoUrl":"https://assetscdn1.paytm.com/images/cinema/PVR%20(1)-bcad5c90-e069-11ee-b37f-29404991a0ba.png","cinemaVideoUrl":"","appCoverVideoUrl":"","webCoverVideoUrl":"","amenities":null,"promos":null,"chainKey":"PVR","contentId":171163,"theatreGroupName":"","amenitiesOrder":null,"carouselAttachments":[],"isPassEnabled":1,"paytmCinemaId":1022281,"city":"Hyderabad","clientId":"ticketnew","isMapped":0,"city_id":null,"is_city_mapped":null,"state":"telangana","id":1022281,"city":"Hyderabad","state":"telangana","label":"PVR Inox Next Galleria Mall Panjagutta","address":"Pvr Next Galleria Mall Panjagutta Opp. Panjaguttta Metro Station, 4Th Floor, Pvr Limited; Sy. No. 1/1, 1/2, 1/3, 3/2, 6/1 & 6/2 Ward No.89,; Panjagutta, Hyderabad, Telangana 500082, India","sessionCount":141},{"id":1022280,"pid":1707,"name":"PVR Inox ICON Hitech Madhapur, Hyderabad","address":"PVR Hyderabad Next Galleria Mall @ Hitech City 4Th Floor, Sy. No. 64, Madhapur, Hitech City, Serilingampally, Hyderabad, Telangana 500081, India","pincode":"500081","lat":17.447901,"lon":78.384543,"cityId":12,"appCovrImgUrl":"","covrImgUrl":"","fnb":0,"mTkt":1,"bCode":"0","sTop":0,"isMerchantCancellable":0,"cinemaLogoUrl":"https://assetscdn1.paytm.com/images/cinema/PVR%20(1)-ff10f5f0-d87c-11ee-8171-7df0cded886f.png","cinemaVideoUrl":"","appCoverVideoUrl":"","webCoverVideoUrl":"","amenities":null,"promos":null,"chainKey":"PVR","contentId":170648,"theatreGroupName":"","amenitiesOrder":null,"carouselAttachments":[],"isPassEnabled":1,"paytmCinemaId":1022280,"city":"Hyderabad","clientId":"ticketnew","isMapped":0,"city_id":null,"is_city_mapped":null,"state":"telangana","id":1022280,"city":"Hyderabad","state":"telangana","label":"PVR Inox ICON Hitech Madhapur, Hyderabad","address":"PVR Hyderabad Next Galleria Mall @ Hitech City 4Th Floor, Sy. No. 64, Madhapur, Hitech City, Serilingampally, Hyderabad, Telangana 500081, India","sessionCount":65},{"id":4360,"pid":736,"name":"Viswanath Theater 70mm A/C, Kukatpally","address":"Mumbai Hwy, Jal Vayu Vihar, Kukatpally,Hyderabad,Telangana,500072","pincode":"500072","lat":17.496851,"lon":78.396455,"cityId":12,"appCovrImgUrl":"","covrImgUrl":"","fnb":0,"mTkt":1,"bCode":"0","sTop":0,"isMerchantCancellable":0,"cinemaLogoUrl":"https://assetscdn1.paytm.com/images/cinema/Theatre%403x-a4b1cf60-676c-11ef-8bfd-85c2f3bcaac6.png","cinemaVideoUrl":"","appCoverVideoUrl":"","webCoverVideoUrl":"","amenities":{"1":-1,"2":1,"3":-1,"4":-1,"5":-1,"6":-1},"promos":null,"chainKey":"TicketNew","contentId":148704,"theatreGroupName":"","amenitiesOrder":[{"id":1,"rank":2,"status":-1},{"id":2,"rank":1,"status":1},{"id":3,"rank":3,"status":-1},{"id":4,"rank":6,"status":-1},{"id":5,"rank":4,"status":-1},{"id":6,"rank":5,"status":-1}],"carouselAttachments":[],"isPassEnabled":0,"paytmCinemaId":4360,"city":"Hyderabad","clientId":"ticketnew","isMapped":0,"city_id":null,"is_city_mapped":null,"state":"telangana","id":4360,"city":"Hyderabad","state":"telangana","label":"Viswanath Theater 70mm A/C, Kukatpally","address":"Mumbai Hwy, Jal Vayu Vihar, Kukatpally,Hyderabad,Telangana,500072","sessionCount":19},{"id":10249,"pid":3,"name":"Miraj Cinemas : Geeta, Chandanagar","address":"Miraj Entertainment Limited. H.No: 5 - 54 Manjeera Road,besides Andhra Bank,  Chandanagar ,Hyderabad. Telangana 500050, India","pincode":"500050","lat":17.493809,"lon":78.319296,"cityId":12,"appCovrImgUrl":"","covrImgUrl":"","fnb":0,"mTkt":1,"bCode":"0145","sTop":0,"isMerchantCancellable":1,"cinemaLogoUrl":"https://assetscdn1.paytm.com/images/cinema/Miraj-logo-7521ad90-7c51-11ed-bf27-a3e7fc56533c.png","cinemaVideoUrl":"","appCoverVideoUrl":"","webCoverVideoUrl":"","amenities":null,"promos":null,"chainKey":"miraj","contentId":150252,"theatreGroupName":"","amenitiesOrder":null,"carouselAttachments":[],"isPassEnabled":0,"paytmCinemaId":10249,"city":"Hyderabad","clientId":"ticketnew","isMapped":0,"city_id":null,"is_city_mapped":null,"state":"telangana","id":10249,"city":"Hyderabad","state":"telangana","label":"Miraj Cinemas : Geeta, Chandanagar","address":"Miraj Entertainment Limited. H.No: 5 - 54 Manjeera Road,besides Andhra Bank,  Chandanagar ,Hyderabad. Telangana 500050, India","sessionCount":32},{"id":9292,"pid":1109,"name":"Rajadhani 70MM 2K Dolby 7.1 - Newly Renovated, Dilshuknagar","address":"Dilsuknagar, Opp Sai Baba Temple, Hyderabad, Telangana 500060, India","pincode":"500060","lat":17.369054,"lon":78.527343,"cityId":12,"appCovrImgUrl":"","covrImgUrl":"","fnb":0,"mTkt":1,"bCode":"0","sTop":0,"isMerchantCancellable":0,"cinemaLogoUrl":"https://assetscdn1.paytm.com/images/cinema/Theatre%403x-a4b1cf60-676c-11ef-8bfd-85c2f3bcaac6.png","cinemaVideoUrl":"","appCoverVideoUrl":"","webCoverVideoUrl":"","amenities":{"2":1,"5":1},"promos":null,"chainKey":"Rajdhani 70mm","contentId":149693,"theatreGroupName":"","amenitiesOrder":[{"id":2,"rank":1,"status":1},{"id":5,"rank":2,"status":1}],"carouselAttachments":[],"isPassEnabled":0,"paytmCinemaId":9292,"city":"Hyderabad","clientId":"ticketnew","isMapped":0,"city_id":null,"is_city_mapped":null,"state":"telangana","id":9292,"city":"Hyderabad","state":"telangana","label":"Rajadhani 70MM 2K Dolby 7.1 - Newly Renovated, Dilshuknagar","address":"Dilsuknagar, Opp Sai Baba Temple, Hyderabad, Telangana 500060, India","sessionCount":19},{"id":977,"pid":19,"name":"Talluri Theatres, Kushaiguda","address":"North Kamala Nagar, Near Venkateshwara Swamy Temple, Kushaiguda, Hyderabad, Telangana 500062","pincode":"500062","lat":17.477725,"lon":78.572459,"cityId":226,"appCovrImgUrl":"","covrImgUrl":"","fnb":0,"mTkt":0,"bCode":"","sTop":0,"isMerchantCancellable":0,"cinemaLogoUrl":"https://assetscdn1.paytm.com/images/cinema/Theatre%403x-a4b1cf60-676c-11ef-8bfd-85c2f3bcaac6.png","cinemaVideoUrl":"","appCoverVideoUrl":"","webCoverVideoUrl":"","amenities":{"1":-1,"2":-1,"3":-1,"4":-1,"5":-1,"6":-1},"promos":null,"chainKey":"Justickets","contentId":147923,"theatreGroupName":"","amenitiesOrder":[{"id":1,"rank":2,"status":-1},{"id":2,"rank":1,"status":-1},{"id":3,"rank":3,"status":-1},{"id":4,"rank":6,"status":-1},{"id":5,"rank":4,"status":-1},{"id":6,"rank":5,"status":-1}],"carouselAttachments":[],"isPassEnabled":0,"paytmCinemaId":977,"city":"Secunderabad","clientId":"ticketnew","isMapped":0,"city_id":null,"is_city_mapped":null,"state":"telangana","id":977,"city":"Secunderabad","state":"telangana","label":"Talluri Theatres, Kushaiguda","address":"North Kamala Nagar, Near Venkateshwara Swamy Temple, Kushaiguda, Hyderabad, Telangana 500062","sessionCount":7},{"id":14166,"pid":736,"name":"Sangeetha Theatre: RC Puram (Formerly SVC Sangeetha)","address":"VRR Residency, RC Ram Chandra Reddy Nagar, RC Reddy Colony, Ramachandra Puram, Hyderabad, Telangana 502032, India","pincode":"502032","lat":17.51352,"lon":78.284415,"cityId":12,"appCovrImgUrl":"","covrImgUrl":"","fnb":0,"mTkt":1,"bCode":"0","sTop":0,"isMerchantCancellable":0,"cinemaLogoUrl":"https://assetscdn1.paytm.com/images/cinema/Theatre%403x-a4b1cf60-676c-11ef-8bfd-85c2f3bcaac6.png","cinemaVideoUrl":"","appCoverVideoUrl":"","webCoverVideoUrl":"","amenities":null,"promos":null,"chainKey":"TicketNew","contentId":150341,"theatreGroupName":"","amenitiesOrder":null,"carouselAttachments":[],"isPassEnabled":0,"paytmCinemaId":14166,"city":"Hyderabad","clientId":"ticketnew","isMapped":0,"city_id":null,"is_city_mapped":null,"state":"telangana","id":14166,"city":"Hyderabad","state":"telangana","label":"Sangeetha Theatre: RC Puram (Formerly SVC Sangeetha)","address":"VRR Residency, RC Ram Chandra Reddy Nagar, RC Reddy Colony, Ramachandra Puram, Hyderabad, Telangana 502032, India","sessionCount":19},{"id":36376,"pid":1595,"name":"Sree Ramana Gold 4K Dolby 7.1, Amberpet","address":"2-2-1053, Bagh Amberpet, Near Durga Matha Temple, Hyderabad, Telangana 500013, India","pincode":"500013","lat":17.392329,"lon":78.515812,"cityId":12,"appCovrImgUrl":"","covrImgUrl":"","fnb":0,"mTkt":1,"bCode":"0","sTop":0,"isMerchantCancellable":0,"cinemaLogoUrl":"https://assetscdn1.paytm.com/images/cinema/Theatre%403x-a4b1cf60-676c-11ef-8bfd-85c2f3bcaac6.png","cinemaVideoUrl":"","appCoverVideoUrl":"","webCoverVideoUrl":"","amenities":{"8":1},"promos":null,"chainKey":"Sree Ramana Digital","contentId":155735,"theatreGroupName":"","amenitiesOrder":[{"id":8,"rank":1,"status":1}],"carouselAttachments":[],"isPassEnabled":0,"paytmCinemaId":36376,"city":"Hyderabad","clientId":"ticketnew","isMapped":0,"city_id":null,"is_city_mapped":null,"state":"telangana","id":36376,"city":"Hyderabad","state":"telangana","label":"Sree Ramana Gold 4K Dolby 7.1, Amberpet","address":"2-2-1053, Bagh Amberpet, Near Durga Matha Temple, Hyderabad, Telangana 500013, India","sessionCount":16},{"id":1030419,"pid":1707,"name":"INOX Prism Mall, Hyderabad","address":"PVR INOX Limited, 3rd Floor, Prism Mall, Near Gachibowli Cross Roads, Gachibowli,Hyderabad, Telangana 500032, India","pincode":"500032","lat":17.44229,"lon":78.36255,"cityId":12,"appCovrImgUrl":"","covrImgUrl":"","fnb":0,"mTkt":1,"bCode":"0","sTop":0,"isMerchantCancellable":0,"cinemaLogoUrl":"https://assetscdn1.paytm.com/images/cinema/Inox%20(1)-7368e200-336d-11ef-99b5-d35223c98590.png","cinemaVideoUrl":"","appCoverVideoUrl":"","webCoverVideoUrl":"","amenities":null,"promos":null,"chainKey":"PVR","contentId":175218,"theatreGroupName":"","amenitiesOrder":null,"carouselAttachments":[],"isPassEnabled":1,"paytmCinemaId":1030419,"city":"Hyderabad","clientId":"ticketnew","isMapped":0,"city_id":null,"is_city_mapped":null,"state":"telangana","id":1030419,"city":"Hyderabad","state":"telangana","label":"INOX Prism Mall, Hyderabad","address":"PVR INOX Limited, 3rd Floor, Prism Mall, Near Gachibowli Cross Roads, Gachibowli,Hyderabad, Telangana 500032, India","sessionCount":72},{"id":1022290,"pid":1707,"name":"PVR Inox Atrium Gachibowli, Hyderabad","address":"PVR Cinemas, 4th Floor, Atrium Mall, Survey No. 136, Gachibowli- Miyapur Road, Gachibowli, Serilingampally, Rangareddy District Hyderabad, Telangana 500032, India","pincode":"500032","lat":17.446307,"lon":78.364001,"cityId":12,"appCovrImgUrl":"","covrImgUrl":"","fnb":0,"mTkt":1,"bCode":"0","sTop":0,"isMerchantCancellable":0,"cinemaLogoUrl":"https://assetscdn1.paytm.com/images/cinema/PVR%20(1)-ff10f5f0-d87c-11ee-8171-7df0cded886f.png","cinemaVideoUrl":"","appCoverVideoUrl":"","webCoverVideoUrl":"","amenities":null,"promos":null,"chainKey":"PVR","contentId":170627,"theatreGroupName":"","amenitiesOrder":null,"carouselAttachments":[],"isPassEnabled":1,"paytmCinemaId":1022290,"city":"Hyderabad","clientId":"ticketnew","isMapped":0,"city_id":null,"is_city_mapped":null,"state":"telangana","id":1022290,"city":"Hyderabad","state":"telangana","label":"PVR Inox Atrium Gachibowli, Hyderabad","address":"PVR Cinemas, 4th Floor, Atrium Mall, Survey No. 136, Gachibowli- Miyapur Road, Gachibowli, Serilingampally, Rangareddy District Hyderabad, Telangana 500032, India","sessionCount":90},{"id":3870,"pid":335,"name":"Cinepolis Sudha Cinemas, Rajpal Nagar","address":"Sudha Theatre Road, Lal Darwaza, Rajpal Nagar, Hyderabad, Telangana 500065, India","pincode":"500065","lat":17.350993,"lon":78.474861,"cityId":12,"appCovrImgUrl":"","covrImgUrl":"","fnb":0,"mTkt":0,"bCode":"0","sTop":0,"isMerchantCancellable":0,"cinemaLogoUrl":"https://assetscdn1.paytm.com/images/cinema/Cinepolis-37915270-b38f-11ee-9dc3-a7b6a49337da.png","cinemaVideoUrl":"","appCoverVideoUrl":"","webCoverVideoUrl":"","amenities":{"1":1,"2":1,"3":-1,"4":1,"5":-1,"6":1},"promos":null,"chainKey":"Cinepolis","contentId":148443,"theatreGroupName":"","amenitiesOrder":[{"id":1,"rank":2,"status":1},{"id":2,"rank":1,"status":1},{"id":3,"rank":3,"status":-1},{"id":4,"rank":6,"status":1},{"id":5,"rank":4,"status":-1},{"id":6,"rank":5,"status":1}],"carouselAttachments":[],"isPassEnabled":0,"paytmCinemaId":3870,"city":"Hyderabad","clientId":"ticketnew","isMapped":0,"city_id":null,"is_city_mapped":null,"state":"telangana","id":3870,"city":"Hyderabad","state":"telangana","label":"Cinepolis Sudha Cinemas, Rajpal Nagar","address":"Sudha Theatre Road, Lal Darwaza, Rajpal Nagar, Hyderabad, Telangana 500065, India","sessionCount":56},{"id":1020782,"pid":1707,"name":"INOX Ashoka One Mall, Kukatpally Y Junction","address":"INOX Leisure Ltd, 3rd Floor, Ashoka One Mall, Kukatpally Y-Junction,  Hyderabad, Telangana 500072, India","pincode":"500072","lat":17.479281,"lon":78.417645,"cityId":12,"appCovrImgUrl":"","covrImgUrl":"","fnb":0,"mTkt":1,"bCode":"0","sTop":0,"isMerchantCancellable":0,"cinemaLogoUrl":"https://assetscdn1.paytm.com/images/cinema/Inox%20(1)-efb44d70-255a-11ef-8a23-77631e928195.png","cinemaVideoUrl":"","appCoverVideoUrl":"","webCoverVideoUrl":"","amenities":null,"promos":null,"chainKey":"PVR","contentId":174449,"theatreGroupName":"","amenitiesOrder":null,"carouselAttachments":[],"isPassEnabled":1,"paytmCinemaId":1020782,"city":"Hyderabad","clientId":"ticketnew","isMapped":0,"city_id":null,"is_city_mapped":null,"state":"telangana","id":1020782,"city":"Hyderabad","state":"telangana","label":"INOX Ashoka One Mall, Kukatpally Y Junction","address":"INOX Leisure Ltd, 3rd Floor, Ashoka One Mall, Kukatpally Y-Junction,  Hyderabad, Telangana 500072, India","sessionCount":77},{"id":1021166,"pid":55,"name":"Movietime Cinemas SKY Mall Erragadda X Road, Hyderabad","address":"SKY Mall, 3rd Floor, Erragadda X  Road, Czech Colony,  Hyderabad, Telangana 500018, India","pincode":"500018","lat":17.456914,"lon":78.437396,"cityId":12,"appCovrImgUrl":"","covrImgUrl":"","fnb":0,"mTkt":1,"bCode":"0","sTop":0,"isMerchantCancellable":0,"cinemaLogoUrl":"https://assetscdn1.paytm.com/images/cinema/movietime-63b885c0-86a0-11ed-babd-1b40982c99df%5B1%5D-99161c60-bac9-11ee-8e34-8f1699ccb7ba.png","cinemaVideoUrl":"","appCoverVideoUrl":"","webCoverVideoUrl":"","amenities":null,"promos":null,"chainKey":"Movietime","contentId":169728,"theatreGroupName":"","amenitiesOrder":null,"carouselAttachments":[],"isPassEnabled":0,"paytmCinemaId":1021166,"city":"Hyderabad","clientId":"ticketnew","isMapped":0,"city_id":null,"is_city_mapped":null,"state":"telangana","id":1021166,"city":"Hyderabad","state":"telangana","label":"Movietime Cinemas SKY Mall Erragadda X Road, Hyderabad","address":"SKY Mall, 3rd Floor, Erragadda X  Road, Czech Colony,  Hyderabad, Telangana 500018, India","sessionCount":48},{"id":1020781,"pid":1707,"name":"INOX Sattva Necklace Mall, Kavadiguda","address":"INOX Leisure Ltd, 4th Floor, Sattva Necklace Mall, Kavadiguda Main Road, Secunderabad 500080, India","pincode":"500080","lat":17.423742,"lon":78.495104,"cityId":12,"appCovrImgUrl":"","covrImgUrl":"","fnb":0,"mTkt":1,"bCode":"0","sTop":0,"isMerchantCancellable":0,"cinemaLogoUrl":"https://assetscdn1.paytm.com/images/cinema/Inox%20(1)-397e00c0-255d-11ef-8a23-77631e928195.png","cinemaVideoUrl":"","appCoverVideoUrl":"","webCoverVideoUrl":"","amenities":null,"promos":null,"chainKey":"PVR","contentId":174453,"theatreGroupName":"","amenitiesOrder":null,"carouselAttachments":[],"isPassEnabled":1,"paytmCinemaId":1020781,"city":"Hyderabad","clientId":"ticketnew","isMapped":0,"city_id":null,"is_city_mapped":null,"state":"telangana","id":1020781,"city":"Hyderabad","state":"telangana","label":"INOX Sattva Necklace Mall, Kavadiguda","address":"INOX Leisure Ltd, 4th Floor, Sattva Necklace Mall, Kavadiguda Main Road, Secunderabad 500080, India","sessionCount":114},{"id":9123,"pid":335,"name":"Cinepolis DSL Virtue Mall, Uppal","address":"DSL Virtue Mall, Uppal, Hyderabad, Telangana 500013, India","pincode":"500013","lat":17.400482,"lon":78.554919,"cityId":12,"appCovrImgUrl":"","covrImgUrl":"","fnb":0,"mTkt":1,"bCode":"842","sTop":0,"isMerchantCancellable":0,"cinemaLogoUrl":"https://assetscdn1.paytm.com/images/cinema/Cinepolis-edc98d30-b387-11ee-9dc3-a7b6a49337da.png","cinemaVideoUrl":"","appCoverVideoUrl":"","webCoverVideoUrl":"","amenities":null,"promos":null,"chainKey":"Cinepolis","contentId":149621,"theatreGroupName":"","amenitiesOrder":null,"carouselAttachments":[],"isPassEnabled":0,"paytmCinemaId":9123,"city":"Hyderabad","clientId":"ticketnew","isMapped":0,"city_id":null,"is_city_mapped":null,"state":"telangana","id":9123,"city":"Hyderabad","state":"telangana","label":"Cinepolis DSL Virtue Mall, Uppal","address":"DSL Virtue Mall, Uppal, Hyderabad, Telangana 500013, India","sessionCount":73},{"id":1018796,"pid":750,"name":"SVC Eeshwar, Attapur","address":"Plot No. 399/400, Ring Road, Beside Attapur Petrol Pump, Radha Krishna Nagar, Hyderaguda, Attapur, Hyderabad, Telangana 500048, India","pincode":"500048","lat":17.366848,"lon":78.427713,"cityId":12,"appCovrImgUrl":"","covrImgUrl":"","fnb":0,"mTkt":1,"bCode":"","sTop":0,"isMerchantCancellable":0,"cinemaLogoUrl":"https://assetscdn1.paytm.com/images/cinema/svc-5551d580-869c-11ed-9b16-5b1b1e9f8842%5B1%5D-88402060-98c4-11ee-9c0a-f7ea7e5b0325.png","cinemaVideoUrl":"","appCoverVideoUrl":"","webCoverVideoUrl":"","amenities":null,"promos":null,"chainKey":"SVC Sangeetha","contentId":168592,"theatreGroupName":"","amenitiesOrder":null,"carouselAttachments":[],"isPassEnabled":0,"paytmCinemaId":1018796,"city":"Hyderabad","clientId":"ticketnew","isMapped":0,"city_id":null,"is_city_mapped":null,"state":"telangana","id":1018796,"city":"Hyderabad","state":"telangana","label":"SVC Eeshwar, Attapur","address":"Plot No. 399/400, Ring Road, Beside Attapur Petrol Pump, Radha Krishna Nagar, Hyderaguda, Attapur, Hyderabad, Telangana 500048, India","sessionCount":19},{"id":1020780,"pid":1707,"name":"INOX GSM Mall, Madinaguda","address":"4th floor, GSM Mall, Miyapur Main Rd, Madinaguda, Chanda Nagar, Hyderabad, Telangana 500049, India","pincode":"500049","lat":17.496387,"lon":78.335735,"cityId":12,"appCovrImgUrl":"","covrImgUrl":"","fnb":0,"mTkt":1,"bCode":"0","sTop":0,"isMerchantCancellable":0,"cinemaLogoUrl":"https://assetscdn1.paytm.com/images/cinema/Inox%20(1)-af51a5b0-255b-11ef-8a23-77631e928195.png","cinemaVideoUrl":"","appCoverVideoUrl":"","webCoverVideoUrl":"","amenities":null,"promos":null,"chainKey":"PVR","contentId":174450,"theatreGroupName":"","amenitiesOrder":null,"carouselAttachments":[],"isPassEnabled":1,"paytmCinemaId":1020780,"city":"Hyderabad","clientId":"ticketnew","isMapped":0,"city_id":null,"is_city_mapped":null,"state":"telangana","id":1020780,"city":"Hyderabad","state":"telangana","label":"INOX GSM Mall, Madinaguda","address":"4th floor, GSM Mall, Miyapur Main Rd, Madinaguda, Chanda Nagar, Hyderabad, Telangana 500049, India","sessionCount":128},{"id":1022251,"pid":1707,"name":"PVR Inox Panjagutta, Hyderabad","address":"5th Floor, Hyderabad Central Mall, Punjagutta Cross Road, Hyderabad, Telangana 500082, India","pincode":"500082","lat":17.426751,"lon":78.453153,"cityId":12,"appCovrImgUrl":"","covrImgUrl":"","fnb":0,"mTkt":1,"bCode":"0","sTop":0,"isMerchantCancellable":0,"cinemaLogoUrl":"https://assetscdn1.paytm.com/images/cinema/PVR%20(1)-a987cd40-e07c-11ee-b37f-29404991a0ba.png","cinemaVideoUrl":"","appCoverVideoUrl":"","webCoverVideoUrl":"","amenities":null,"promos":null,"chainKey":"PVR","contentId":171180,"theatreGroupName":"","amenitiesOrder":null,"carouselAttachments":[],"isPassEnabled":1,"paytmCinemaId":1022251,"city":"Hyderabad","clientId":"ticketnew","isMapped":0,"city_id":null,"is_city_mapped":null,"state":"telangana","id":1022251,"city":"Hyderabad","state":"telangana","label":"PVR Inox Panjagutta, Hyderabad","address":"5th Floor, Hyderabad Central Mall, Punjagutta Cross Road, Hyderabad, Telangana 500082, India","sessionCount":57},{"id":1020777,"pid":1707,"name":"INOX Maheshwari Parmeshwari Mall, Kachiguda","address":"5th Floor, Maheshwari Parmeshwari, Kachiguda Cross Roads, Hyderabad, Telangana 500027, India","pincode":"500027","lat":17.390682,"lon":78.488422,"cityId":12,"appCovrImgUrl":"","covrImgUrl":"","fnb":0,"mTkt":1,"bCode":"0","sTop":0,"isMerchantCancellable":0,"cinemaLogoUrl":"https://assetscdn1.paytm.com/images/cinema/Inox%20(1)-c94c1440-255c-11ef-a342-13ea6c7d9d31.png","cinemaVideoUrl":"","appCoverVideoUrl":"","webCoverVideoUrl":"","amenities":null,"promos":null,"chainKey":"PVR","contentId":174452,"theatreGroupName":"","amenitiesOrder":null,"carouselAttachments":[],"isPassEnabled":1,"paytmCinemaId":1020777,"city":"Hyderabad","clientId":"ticketnew","isMapped":0,"city_id":null,"is_city_mapped":null,"state":"telangana","id":1020777,"city":"Hyderabad","state":"telangana","label":"INOX Maheshwari Parmeshwari Mall, Kachiguda","address":"5th Floor, Maheshwari Parmeshwari, Kachiguda Cross Roads, Hyderabad, Telangana 500027, India","sessionCount":82},{"id":1020776,"pid":1707,"name":"INOX GVK One, Banjara Hills","address":"GVK One, 4th Floor, GVK One, Road No.1, Banjara Hills, Hyderabad, Telangana 500034, India","pincode":"500034","lat":17.419543,"lon":78.448599,"cityId":12,"appCovrImgUrl":"","covrImgUrl":"","fnb":0,"mTkt":1,"bCode":"0","sTop":0,"isMerchantCancellable":0,"cinemaLogoUrl":"https://assetscdn1.paytm.com/images/cinema/Inox%20(1)-5dc7aa40-255c-11ef-8a23-77631e928195.png","cinemaVideoUrl":"","appCoverVideoUrl":"","webCoverVideoUrl":"","amenities":null,"promos":null,"chainKey":"PVR","contentId":174451,"theatreGroupName":"","amenitiesOrder":null,"carouselAttachments":[],"isPassEnabled":1,"paytmCinemaId":1020776,"city":"Hyderabad","clientId":"ticketnew","isMapped":0,"city_id":null,"is_city_mapped":null,"state":"telangana","id":1020776,"city":"Hyderabad","state":"telangana","label":"INOX GVK One, Banjara Hills","address":"GVK One, 4th Floor, GVK One, Road No.1, Banjara Hills, Hyderabad, Telangana 500034, India","sessionCount":96},{"id":1021025,"pid":1780,"name":"JP Cinemas, Chandhanagar","address":"Shop No. W-4, F8Wm+2P3 Tapadia Maruti Infinity Mall, Door No. 2-132, Chanda Nagar, Hyderabad, Telangana 500050, India","pincode":"500050","lat":17.495126,"lon":78.334151,"cityId":12,"appCovrImgUrl":"","covrImgUrl":"","fnb":0,"mTkt":1,"bCode":"0","sTop":1,"isMerchantCancellable":0,"cinemaLogoUrl":"https://assetscdn1.paytm.com/images/cinema/Theatre%403x-a4b1cf60-676c-11ef-8bfd-85c2f3bcaac6.png","cinemaVideoUrl":"","appCoverVideoUrl":"","webCoverVideoUrl":"","amenities":null,"promos":null,"chainKey":"JP Cinema","contentId":169666,"theatreGroupName":"","amenitiesOrder":null,"carouselAttachments":[{"type":"IMAGE","assetPosition":1.0,"appImageUrl":"https://assetscdn1.paytm.com/images/cinema/f001_1699618806727-4a234d00-893a-11ee-8473-c312cb30dfac%5B1%5D-c071ad20-b07d-11ee-8a1f-bfa09bf4348a%5B1%5D-a8d4ebe0-b907-11ee-8e34-8f1699ccb7ba.jpg","webImageUrl":"https://assetscdn1.paytm.com/images/cinema/f001_1699618806727-WEB-50cfd3d0-893a-11ee-931a-230dd0f33fac%5B1%5D-c848f850-b07d-11ee-8a1f-bfa09bf4348a%5B1%5D-b0d765c0-b907-11ee-aa0d-fffa0ed2ba98.jpg"},{"type":"IMAGE","assetPosition":2.0,"appImageUrl":"https://assetscdn1.paytm.com/images/cinema/001_1699618818156-759c2560-893a-11ee-8473-c312cb30dfac%5B1%5D-d2e1ad70-b07d-11ee-8a1f-bfa09bf4348a%5B1%5D-bb5985a0-b907-11ee-aa0d-fffa0ed2ba98.jpg","webImageUrl":"https://assetscdn1.paytm.com/images/cinema/001_1699618818156-WEB-79fbd600-893a-11ee-931a-230dd0f33fac%5B1%5D-dbb3ac50-b07d-11ee-9dc3-a7b6a49337da%5B1%5D-c3f29a30-b907-11ee-8e34-8f1699ccb7ba.jpg"},{"type":"IMAGE","assetPosition":3.0,"appImageUrl":"https://assetscdn1.paytm.com/images/cinema/002_1699618821739-942b53c0-893a-11ee-931a-230dd0f33fac%5B1%5D-e781ad20-b07d-11ee-9dc3-a7b6a49337da%5B1%5D-cf84ca80-b907-11ee-aa0d-fffa0ed2ba98.jpg","webImageUrl":"https://assetscdn1.paytm.com/images/cinema/002_1699618821739-WEB-98b71d70-893a-11ee-8473-c312cb30dfac%5B1%5D-eef15ce0-b07d-11ee-9dc3-a7b6a49337da%5B1%5D-d83a40b0-b907-11ee-8e34-8f1699ccb7ba.jpg"},{"type":"IMAGE","assetPosition":4.0,"appImageUrl":"https://assetscdn1.paytm.com/images/cinema/003_1699618826071-aa069290-893a-11ee-931a-230dd0f33fac%5B1%5D-feb01fe0-b07d-11ee-9dc3-a7b6a49337da%5B1%5D-e218cd90-b907-11ee-aa0d-fffa0ed2ba98.jpg","webImageUrl":"https://assetscdn1.paytm.com/images/cinema/003_1699618826071-WEB-ada56430-893a-11ee-931a-230dd0f33fac%5B1%5D-0b1de320-b07e-11ee-8a1f-bfa09bf4348a%5B1%5D-e9ba3bb0-b907-11ee-aa0d-fffa0ed2ba98.jpg"},{"type":"IMAGE","assetPosition":5.0,"appImageUrl":"https://assetscdn1.paytm.com/images/cinema/004_1699618829778-b413a980-893a-11ee-8473-c312cb30dfac%5B1%5D-1b291870-b07e-11ee-8a1f-bfa09bf4348a%5B1%5D-f44f2040-b907-11ee-8e34-8f1699ccb7ba.jpg","webImageUrl":"https://assetscdn1.paytm.com/images/cinema/004_1699618829778-WEB-b7b49e00-893a-11ee-8473-c312cb30dfac%5B1%5D-2355fdb0-b07e-11ee-9dc3-a7b6a49337da%5B1%5D-fb9bdeb0-b907-11ee-8e34-8f1699ccb7ba.jpg"},{"type":"IMAGE","assetPosition":6.0,"appImageUrl":"https://assetscdn1.paytm.com/images/cinema/005_1699618838284-c01c9070-893a-11ee-8473-c312cb30dfac%5B1%5D-337d94a0-b07e-11ee-8a1f-bfa09bf4348a%5B1%5D-0699e550-b908-11ee-aa0d-fffa0ed2ba98.jpg","webImageUrl":"https://assetscdn1.paytm.com/images/cinema/005_1699618838284-WEB-c6503dc0-893a-11ee-931a-230dd0f33fac%5B1%5D-3d21feb0-b07e-11ee-8a1f-bfa09bf4348a%5B1%5D-0dc5ae40-b908-11ee-8e34-8f1699ccb7ba.jpg"}],"isPassEnabled":0,"paytmCinemaId":1021025,"city":"Hyderabad","clientId":"ticketnew","isMapped":0,"city_id":null,"is_city_mapped":null,"state":"telangana","id":1021025,"city":"Hyderabad","state":"telangana","label":"JP Cinemas, Chandhanagar","address":"Shop No. W-4, F8Wm+2P3 Tapadia Maruti Infinity Mall, Door No. 2-132, Chanda Nagar, Hyderabad, Telangana 500050, India","sessionCount":88},{"id":38575,"pid":55,"name":"Platinum MovieTime Cinemas Ameerpet","address":"Big Bazar Mall, GS 24 Old Gold Spot Building, Ameerpet Road, Ameerpet, Hyderabad, Telangana 500073, India","pincode":"500073","lat":17.430444,"lon":78.448334,"cityId":12,"appCovrImgUrl":"","covrImgUrl":"","fnb":0,"mTkt":1,"bCode":"0","sTop":0,"isMerchantCancellable":0,"cinemaLogoUrl":"https://assetscdn1.paytm.com/images/cinema/movietime-63b885c0-86a0-11ed-babd-1b40982c99df.png","cinemaVideoUrl":"","appCoverVideoUrl":"","webCoverVideoUrl":"","amenities":null,"promos":null,"chainKey":"Movietime","contentId":156079,"theatreGroupName":"","amenitiesOrder":null,"carouselAttachments":[],"isPassEnabled":0,"paytmCinemaId":38575,"city":"Hyderabad","clientId":"ticketnew","isMapped":0,"city_id":null,"is_city_mapped":null,"state":"telangana","id":38575,"city":"Hyderabad","state":"telangana","label":"Platinum MovieTime Cinemas Ameerpet","address":"Big Bazar Mall, GS 24 Old Gold Spot Building, Ameerpet Road, Ameerpet, Hyderabad, Telangana 500073, India","sessionCount":66},{"id":56048,"pid":750,"name":"SVC Shiva Sakthi Theatre, Kapra","address":"Anupuram Colony, A.S.Rao Nagar, Secunderabad, Telangana 500062, India","pincode":"500062","lat":17.476576,"lon":78.562597,"cityId":12,"appCovrImgUrl":"","covrImgUrl":"","fnb":0,"mTkt":1,"bCode":"0","sTop":0,"isMerchantCancellable":0,"cinemaLogoUrl":"https://assetscdn1.paytm.com/images/cinema/svc-5551d580-869c-11ed-9b16-5b1b1e9f8842.png","cinemaVideoUrl":"","appCoverVideoUrl":"","webCoverVideoUrl":"","amenities":{"1":1,"18":1,"11":1},"promos":null,"chainKey":"SVC Sangeetha","contentId":159367,"theatreGroupName":"","amenitiesOrder":[{"id":1,"rank":3,"status":1},{"id":11,"rank":1,"status":1},{"id":18,"rank":2,"status":1}],"carouselAttachments":[{"type":"IMAGE","assetPosition":1.0,"appImageUrl":"https://assetscdn1.paytm.com/images/cinema/SVC%20day%20app-631d9580-b0f6-11ed-bb3a-6f38ee92a536.jpg","webImageUrl":"https://assetscdn1.paytm.com/images/cinema/SVC%20day%20web-69e126c0-b0f6-11ed-bd26-e3f134b2e101.jpg"},{"type":"IMAGE","assetPosition":2.0,"appImageUrl":"https://assetscdn1.paytm.com/images/cinema/Chair-7cfe08e0-b0f6-11ed-bd26-e3f134b2e101.jpg","webImageUrl":"https://assetscdn1.paytm.com/images/cinema/Chair%20web-832c37f0-b0f6-11ed-bb3a-6f38ee92a536.jpg"},{"type":"IMAGE","assetPosition":3.0,"appImageUrl":"https://assetscdn1.paytm.com/images/cinema/Screen-8d110660-b0f6-11ed-bd26-e3f134b2e101.jpg","webImageUrl":"https://assetscdn1.paytm.com/images/cinema/Screen%20web-93bb6a50-b0f6-11ed-bd26-e3f134b2e101.jpg"},{"type":"IMAGE","assetPosition":4.0,"appImageUrl":"https://assetscdn1.paytm.com/images/cinema/SVC%20nyt%20app-9e13bb10-b0f6-11ed-bb3a-6f38ee92a536.jpg","webImageUrl":"https://assetscdn1.paytm.com/images/cinema/SVC%20nyt%20web-a3acd610-b0f6-11ed-bb3a-6f38ee92a536.jpg"}],"isPassEnabled":0,"paytmCinemaId":56048,"city":"Hyderabad","clientId":"ticketnew","isMapped":0,"city_id":null,"is_city_mapped":null,"state":"telangana","id":56048,"city":"Hyderabad","state":"telangana","label":"SVC Shiva Sakthi Theatre, Kapra","address":"Anupuram Colony, A.S.Rao Nagar, Secunderabad, Telangana 500062, India","sessionCount":19},{"id":52274,"pid":1513,"name":"MovieMax AMR – ECIL Secunderabad","address":"AMR Planet Mall,1,Rd,373/1 and 373.3, Trimulgherry, ECIL Road, Extn - Moula Ali, Secunderabad, Extn - Moula Ali, Secunderabad, Hyderabad, Telangana 500040, India","pincode":"500040","lat":17.463725,"lon":78.560971,"cityId":12,"appCovrImgUrl":"","covrImgUrl":"","fnb":0,"mTkt":1,"bCode":"0","sTop":0,"isMerchantCancellable":1,"cinemaLogoUrl":"https://assetscdn1.paytm.com/images/cinema/moviemax-acd670c0-a2d2-11ed-9858-d143c091363e.png","cinemaVideoUrl":"","appCoverVideoUrl":"","webCoverVideoUrl":"","amenities":null,"promos":null,"chainKey":"MovieMax","contentId":158459,"theatreGroupName":"","amenitiesOrder":null,"carouselAttachments":[],"isPassEnabled":0,"paytmCinemaId":52274,"city":"Hyderabad","clientId":"ticketnew","isMapped":0,"city_id":null,"is_city_mapped":null,"state":"telangana","id":52274,"city":"Hyderabad","state":"telangana","label":"MovieMax AMR – ECIL Secunderabad","address":"AMR Planet Mall,1,Rd,373/1 and 373.3, Trimulgherry, ECIL Road, Extn - Moula Ali, Secunderabad, Extn - Moula Ali, Secunderabad, Hyderabad, Telangana 500040, India","sessionCount":83},{"id":1022267,"pid":1707,"name":"PVR Inox Nexus Mall (Formerly Forum Sujana) Kukatpally, Hyderabad","address":"4th Floor, Nexus Mall, Plot No S-16, Survey No.1009, KPHB Phase 6, Opp Malaysian Township, Kukatpally, Hyderabad, Telangana 500072, India","pincode":"500072","lat":17.484026,"lon":78.3888,"cityId":12,"appCovrImgUrl":"","covrImgUrl":"","fnb":0,"mTkt":1,"bCode":"0","sTop":0,"isMerchantCancellable":0,"cinemaLogoUrl":"https://assetscdn1.paytm.com/images/cinema/PVR%20(1)-ff10f5f0-d87c-11ee-8171-7df0cded886f.png","cinemaVideoUrl":"","appCoverVideoUrl":"","webCoverVideoUrl":"","amenities":null,"promos":null,"chainKey":"PVR","contentId":170667,"theatreGroupName":"","amenitiesOrder":null,"carouselAttachments":[],"isPassEnabled":1,"paytmCinemaId":1022267,"city":"Hyderabad","clientId":"ticketnew","isMapped":0,"city_id":null,"is_city_mapped":null,"state":"telangana","id":1022267,"city":"Hyderabad","state":"telangana","label":"PVR Inox Nexus Mall (Formerly Forum Sujana) Kukatpally, Hyderabad","address":"4th Floor, Nexus Mall, Plot No S-16, Survey No.1009, KPHB Phase 6, Opp Malaysian Township, Kukatpally, Hyderabad, Telangana 500072, India","sessionCount":164},{"id":183,"pid":3,"name":"Miraj Shalini Shivani Cinemas, Kothapet","address":"Dilsukh Nagar, Opp. Kothapet Fruit Market, Hyderabad, Telangana 500036, India","pincode":"500036","lat":17.367661,"lon":78.536203,"cityId":12,"appCovrImgUrl":"na","covrImgUrl":"","fnb":0,"mTkt":1,"bCode":"0022","sTop":1,"isMerchantCancellable":1,"cinemaLogoUrl":"https://assetscdn1.paytm.com/images/cinema/Miraj-logo-7521ad90-7c51-11ed-bf27-a3e7fc56533c.png","cinemaVideoUrl":"","appCoverVideoUrl":"","webCoverVideoUrl":"","amenities":{"1":-1,"2":-1,"3":-1,"4":-1,"5":-1,"6":-1},"promos":null,"chainKey":"miraj","contentId":147633,"theatreGroupName":"","amenitiesOrder":[{"id":1,"rank":2,"status":-1},{"id":2,"rank":1,"status":-1},{"id":3,"rank":3,"status":-1},{"id":4,"rank":6,"status":-1},{"id":5,"rank":4,"status":-1},{"id":6,"rank":5,"status":-1}],"carouselAttachments":[],"isPassEnabled":0,"paytmCinemaId":183,"city":"Hyderabad","clientId":"ticketnew","isMapped":0,"city_id":null,"is_city_mapped":null,"state":"telangana","id":183,"city":"Hyderabad","state":"telangana","label":"Miraj Shalini Shivani Cinemas, Kothapet","address":"Dilsukh Nagar, Opp. Kothapet Fruit Market, Hyderabad, Telangana 500036, India","sessionCount":13},{"id":7543,"pid":981,"name":"Sampurna 70MM 2K Dolby Digital - Vanasthalipuram","address":"Vanasthalipuram, Near Rythu Bazaar, Hyderabad, Telangana 500070, India","pincode":"500070","lat":17.331215,"lon":78.57603,"cityId":12,"appCovrImgUrl":"","covrImgUrl":"","fnb":0,"mTkt":1,"bCode":"0","sTop":0,"isMerchantCancellable":0,"cinemaLogoUrl":"https://assetscdn1.paytm.com/images/cinema/Theatre%403x-a4b1cf60-676c-11ef-8bfd-85c2f3bcaac6.png","cinemaVideoUrl":"","appCoverVideoUrl":"","webCoverVideoUrl":"","amenities":null,"promos":null,"chainKey":"Sampurna Theatre","contentId":149404,"theatreGroupName":"","amenitiesOrder":null,"carouselAttachments":[],"isPassEnabled":0,"paytmCinemaId":7543,"city":"Hyderabad","clientId":"ticketnew","isMapped":0,"city_id":null,"is_city_mapped":null,"state":"telangana","id":7543,"city":"Hyderabad","state":"telangana","label":"Sampurna 70MM 2K Dolby Digital - Vanasthalipuram","address":"Vanasthalipuram, Near Rythu Bazaar, Hyderabad, Telangana 500070, India","sessionCount":15},{"id":24951,"pid":3,"name":"Miraj Cinemas : CineTown, Miyapur","address":"Miraj Cinema Miyapur, Cinetown, Survey No. 71, Miyapur, Village Ranga Reddy, Hyderabad, Telangana 500049, India","pincode":"500049","lat":17.495567,"lon":78.353322,"cityId":12,"appCovrImgUrl":"","covrImgUrl":"","fnb":0,"mTkt":1,"bCode":"0","sTop":0,"isMerchantCancellable":1,"cinemaLogoUrl":"https://assetscdn1.paytm.com/images/cinema/Miraj-logo-7521ad90-7c51-11ed-bf27-a3e7fc56533c.png","cinemaVideoUrl":"","appCoverVideoUrl":"","webCoverVideoUrl":"","amenities":null,"promos":null,"chainKey":"miraj","contentId":150504,"theatreGroupName":"","amenitiesOrder":null,"carouselAttachments":[],"isPassEnabled":0,"paytmCinemaId":24951,"city":"Hyderabad","clientId":"ticketnew","isMapped":0,"city_id":null,"is_city_mapped":null,"state":"telangana","id":24951,"city":"Hyderabad","state":"telangana","label":"Miraj Cinemas : CineTown, Miyapur","address":"Miraj Cinema Miyapur, Cinetown, Survey No. 71, Miyapur, Village Ranga Reddy, Hyderabad, Telangana 500049, India","sessionCount":53},{"id":1022263,"pid":1707,"name":"PVR Inox Inorbit Cyberabad","address":"APIIC Software Layout, Mindspace, INORBIT Mall, Hitech City, Madhapur,  Cyberabad, Telangana 500081, India","pincode":"500081","lat":17.435061,"lon":78.386736,"cityId":12,"appCovrImgUrl":"","covrImgUrl":"","fnb":0,"mTkt":1,"bCode":"0","sTop":0,"isMerchantCancellable":0,"cinemaLogoUrl":"https://assetscdn1.paytm.com/images/cinema/PVR%20(1)-85473b90-e069-11ee-b37f-29404991a0ba.png","cinemaVideoUrl":"","appCoverVideoUrl":"","webCoverVideoUrl":"","amenities":null,"promos":null,"chainKey":"PVR","contentId":171161,"theatreGroupName":"","amenitiesOrder":null,"carouselAttachments":[],"isPassEnabled":1,"paytmCinemaId":1022263,"city":"Hyderabad","clientId":"ticketnew","isMapped":0,"city_id":null,"is_city_mapped":null,"state":"telangana","id":1022263,"city":"Hyderabad","state":"telangana","label":"PVR Inox Inorbit Cyberabad","address":"APIIC Software Layout, Mindspace, INORBIT Mall, Hitech City, Madhapur,  Cyberabad, Telangana 500081, India","sessionCount":68},{"id":1977,"pid":335,"name":"Cinepolis Mantra Mall, Upparpally","address":"Mantra Mall, Inner Ring Road, Royal Colony, Upparpally, Hyderabad, Telangana 500030, India","pincode":"500030","lat":17.355,"lon":78.420601,"cityId":12,"appCovrImgUrl":"","covrImgUrl":"","fnb":0,"mTkt":1,"bCode":"840","sTop":0,"isMerchantCancellable":0,"cinemaLogoUrl":"https://assetscdn1.paytm.com/images/cinema/Cinepolis-f37274c0-b389-11ee-9dc3-a7b6a49337da.png","cinemaVideoUrl":"","appCoverVideoUrl":"","webCoverVideoUrl":"","amenities":{"1":1,"2":1,"3":-1,"4":1,"5":-1,"6":1},"promos":null,"chainKey":"Cinepolis","contentId":148165,"theatreGroupName":"","amenitiesOrder":[{"id":1,"rank":2,"status":1},{"id":2,"rank":1,"status":1},{"id":3,"rank":3,"status":-1},{"id":4,"rank":6,"status":1},{"id":5,"rank":4,"status":-1},{"id":6,"rank":5,"status":1}],"carouselAttachments":[],"isPassEnabled":0,"paytmCinemaId":1977,"city":"Hyderabad","clientId":"ticketnew","isMapped":0,"city_id":null,"is_city_mapped":null,"state":"telangana","id":1977,"city":"Hyderabad","state":"telangana","label":"Cinepolis Mantra Mall, Upparpally","address":"Mantra Mall, Inner Ring Road, Royal Colony, Upparpally, Hyderabad, Telangana 500030, India","sessionCount":76},{"id":1020278,"pid":736,"name":"Mythri Theatres - Vimal 70MM - AC - 4K Laser - Dolby Atmos, Balanagar(Newly Renovated)","address":"No: 6 - 3 - 30, Opposite Police Station, Fatehnagar, Bala Nagar, Old Airport Road, Hyderabad, Telangana 500042, India","pincode":"500042","lat":17.463768,"lon":78.451329,"cityId":12,"appCovrImgUrl":"","covrImgUrl":"","fnb":0,"mTkt":1,"bCode":"0","sTop":0,"isMerchantCancellable":0,"cinemaLogoUrl":"https://assetscdn1.paytm.com/images/cinema/Mythri-21174850-6367-11ef-ab88-c71a50c73cdf.png","cinemaVideoUrl":"","appCoverVideoUrl":"","webCoverVideoUrl":"","amenities":{"2":1,"19":1,"5":1,"6":1,"7":1,"24":1,"8":1,"25":1,"10":1},"promos":null,"chainKey":"TicketNew","contentId":169285,"theatreGroupName":"","amenitiesOrder":[{"id":2,"rank":8,"status":1},{"id":5,"rank":6,"status":1},{"id":6,"rank":7,"status":1},{"id":7,"rank":4,"status":1},{"id":8,"rank":3,"status":1},{"id":10,"rank":2,"status":1},{"id":19,"rank":1,"status":1},{"id":24,"rank":5,"status":1},{"id":25,"rank":9,"status":1}],"carouselAttachments":[{"type":"IMAGE","assetPosition":1.0,"appImageUrl":"https://assetscdn1.paytm.com/images/cinema/3-a9605910-5eb5-11ef-9f9d-4f719a5c0ab9.jpg","webImageUrl":"https://assetscdn1.paytm.com/images/cinema/3-web-ac515e80-5eb5-11ef-9f9d-4f719a5c0ab9.jpg"},{"type":"IMAGE","assetPosition":2.0,"appImageUrl":"https://assetscdn1.paytm.com/images/cinema/4-b4f21430-5eb5-11ef-905d-2787d4ac61b5.jpg","webImageUrl":"https://assetscdn1.paytm.com/images/cinema/4-web-b7b7eaf0-5eb5-11ef-905d-2787d4ac61b5.jpg"},{"type":"IMAGE","assetPosition":3.0,"appImageUrl":"https://assetscdn1.paytm.com/images/cinema/5-bc5a9800-5eb5-11ef-9f9d-4f719a5c0ab9.jpg","webImageUrl":"https://assetscdn1.paytm.com/images/cinema/5-web-bf2047b0-5eb5-11ef-905d-2787d4ac61b5.jpg"},{"type":"IMAGE","assetPosition":4.0,"appImageUrl":"https://assetscdn1.paytm.com/images/cinema/2-c58983f0-5eb5-11ef-905d-2787d4ac61b5.jpg","webImageUrl":"https://assetscdn1.paytm.com/images/cinema/2-web-c7eec420-5eb5-11ef-905d-2787d4ac61b5.jpg"},{"type":"IMAGE","assetPosition":5.0,"appImageUrl":"https://assetscdn1.paytm.com/images/cinema/1--cd00d4d0-5eb5-11ef-905d-2787d4ac61b5.jpg","webImageUrl":"https://assetscdn1.paytm.com/images/cinema/1-web-cf692240-5eb5-11ef-9f9d-4f719a5c0ab9.jpg"}],"isPassEnabled":0,"paytmCinemaId":1020278,"city":"Hyderabad","clientId":"ticketnew","isMapped":0,"city_id":null,"is_city_mapped":null,"state":"telangana","id":1020278,"city":"Hyderabad","state":"telangana","label":"Mythri Theatres - Vimal 70MM - AC - 4K Laser - Dolby Atmos, Balanagar(Newly Renovated)","address":"No: 6 - 3 - 30, Opposite Police Station, Fatehnagar, Bala Nagar, Old Airport Road, Hyderabad, Telangana 500042, India","sessionCount":16},{"id":4346,"pid":736,"name":"Super 70mm - Balapur","address":"Cross Road, Near CRA Bank ATM,,Hyderabad,Telangana,500097","pincode":"500097","lat":17.318078,"lon":78.518776,"cityId":12,"appCovrImgUrl":"","covrImgUrl":"","fnb":0,"mTkt":1,"bCode":"0","sTop":0,"isMerchantCancellable":0,"cinemaLogoUrl":"https://assetscdn1.paytm.com/images/cinema/Theatre%403x-a4b1cf60-676c-11ef-8bfd-85c2f3bcaac6.png","cinemaVideoUrl":"","appCoverVideoUrl":"","webCoverVideoUrl":"","amenities":{"1":-1,"2":1,"3":-1,"4":-1,"5":-1,"6":-1},"promos":null,"chainKey":"TicketNew","contentId":148700,"theatreGroupName":"","amenitiesOrder":[{"id":1,"rank":2,"status":-1},{"id":2,"rank":1,"status":1},{"id":3,"rank":3,"status":-1},{"id":4,"rank":6,"status":-1},{"id":5,"rank":4,"status":-1},{"id":6,"rank":5,"status":-1}],"carouselAttachments":[],"isPassEnabled":0,"paytmCinemaId":4346,"city":"Hyderabad","clientId":"ticketnew","isMapped":0,"city_id":null,"is_city_mapped":null,"state":"telangana","id":4346,"city":"Hyderabad","state":"telangana","label":"Super 70mm - Balapur","address":"Cross Road, Near CRA Bank ATM,,Hyderabad,Telangana,500097","sessionCount":15},{"id":9338,"pid":3,"name":"Miraj Cinemas: A2A Central Mall, Balanagar","address":"A2A Central Mall, 5th Floor, Balanagar, Hyderabad, Telangana 500037, India","pincode":"500037","lat":17.482387,"lon":78.448723,"cityId":12,"appCovrImgUrl":"","covrImgUrl":"","fnb":0,"mTkt":1,"bCode":"0156","sTop":0,"isMerchantCancellable":1,"cinemaLogoUrl":"https://assetscdn1.paytm.com/images/cinema/Miraj-logo-7521ad90-7c51-11ed-bf27-a3e7fc56533c.png","cinemaVideoUrl":"","appCoverVideoUrl":"","webCoverVideoUrl":"","amenities":null,"promos":null,"chainKey":"miraj","contentId":149712,"theatreGroupName":"","amenitiesOrder":null,"carouselAttachments":[],"isPassEnabled":0,"paytmCinemaId":9338,"city":"Hyderabad","clientId":"ticketnew","isMapped":0,"city_id":null,"is_city_mapped":null,"state":"telangana","id":9338,"city":"Hyderabad","state":"telangana","label":"Miraj Cinemas: A2A Central Mall, Balanagar","address":"A2A Central Mall, 5th Floor, Balanagar, Hyderabad, Telangana 500037, India","sessionCount":46},{"id":124,"pid":335,"name":"Cinepolis Lulu Mall (Formerly Manjeera), Hyderabad","address":"3rd Floor, LuLu Mall, Hi-Tech Road, Phase 3, Kukatpally Housing Board Colony, Kukatpally, Hyderabad, Telangana 500082, India","pincode":"500082","lat":17.490035,"lon":78.393253,"cityId":12,"appCovrImgUrl":"","covrImgUrl":"","fnb":0,"mTkt":1,"bCode":"533","sTop":0,"isMerchantCancellable":0,"cinemaLogoUrl":"https://assetscdn1.paytm.com/images/cinema/Cinepolis-916f3560-b389-11ee-8a1f-bfa09bf4348a.png","cinemaVideoUrl":"","appCoverVideoUrl":"","webCoverVideoUrl":"","amenities":{"1":1,"2":1,"3":-1,"4":1,"5":-1,"6":1},"promos":null,"chainKey":"Cinepolis","contentId":147586,"theatreGroupName":"","amenitiesOrder":[{"id":1,"rank":2,"status":1},{"id":2,"rank":1,"status":1},{"id":3,"rank":3,"status":-1},{"id":4,"rank":6,"status":1},{"id":5,"rank":4,"status":-1},{"id":6,"rank":5,"status":1}],"carouselAttachments":[],"isPassEnabled":0,"paytmCinemaId":124,"city":"Hyderabad","clientId":"ticketnew","isMapped":0,"city_id":null,"is_city_mapped":null,"state":"telangana","id":124,"city":"Hyderabad","state":"telangana","label":"Cinepolis Lulu Mall (Formerly Manjeera), Hyderabad","address":"3rd Floor, LuLu Mall, Hi-Tech Road, Phase 3, Kukatpally Housing Board Colony, Kukatpally, Hyderabad, Telangana 500082, India","sessionCount":87},{"id":4348,"pid":736,"name":"Bhujanga 70 MM Theatre, Jeedimetla","address":"Pipe Line Rd, Phase 1, IDA Jeedimetla, Chinthal, Jeedimetla, Hyderabad, Telangana 500055, India","pincode":"500055","lat":17.512216,"lon":78.448617,"cityId":12,"appCovrImgUrl":"","covrImgUrl":"","fnb":0,"mTkt":1,"bCode":"0","sTop":0,"isMerchantCancellable":0,"cinemaLogoUrl":"https://assetscdn1.paytm.com/images/cinema/Theatre%403x-a4b1cf60-676c-11ef-8bfd-85c2f3bcaac6.png","cinemaVideoUrl":"","appCoverVideoUrl":"","webCoverVideoUrl":"","amenities":{"1":-1,"2":1,"3":-1,"4":-1,"5":-1,"6":-1},"promos":null,"chainKey":"TicketNew","contentId":148701,"theatreGroupName":"","amenitiesOrder":[{"id":1,"rank":2,"status":-1},{"id":2,"rank":1,"status":1},{"id":3,"rank":3,"status":-1},{"id":4,"rank":6,"status":-1},{"id":5,"rank":4,"status":-1},{"id":6,"rank":5,"status":-1}],"carouselAttachments":[],"isPassEnabled":0,"paytmCinemaId":4348,"city":"Hyderabad","clientId":"ticketnew","isMapped":0,"city_id":null,"is_city_mapped":null,"state":"telangana","id":4348,"city":"Hyderabad","state":"telangana","label":"Bhujanga 70 MM Theatre, Jeedimetla","address":"Pipe Line Rd, Phase 1, IDA Jeedimetla, Chinthal, Jeedimetla, Hyderabad, Telangana 500055, India","sessionCount":15},{"id":126,"pid":335,"name":"Cinepolis CCPL Mall, Malkajgiri","address":"CCPL Mall, Vimala Devi Nagar Colony, Malkajgiri, Secunderabad, Telangana 500047, India","pincode":"500047","lat":17.457209,"lon":78.53692,"cityId":12,"appCovrImgUrl":"","covrImgUrl":"","fnb":0,"mTkt":1,"bCode":"550","sTop":0,"isMerchantCancellable":0,"cinemaLogoUrl":"https://assetscdn1.paytm.com/images/cinema/Cinepolis-6cf09600-b386-11ee-8a1f-bfa09bf4348a.png","cinemaVideoUrl":"","appCoverVideoUrl":"","webCoverVideoUrl":"","amenities":{"1":1,"2":1,"3":-1,"4":1,"5":-1,"6":1},"promos":null,"chainKey":"Cinepolis","contentId":147588,"theatreGroupName":"","amenitiesOrder":[{"id":1,"rank":2,"status":1},{"id":2,"rank":1,"status":1},{"id":3,"rank":3,"status":-1},{"id":4,"rank":6,"status":1},{"id":5,"rank":4,"status":-1},{"id":6,"rank":5,"status":1}],"carouselAttachments":[],"isPassEnabled":0,"paytmCinemaId":126,"city":"Hyderabad","clientId":"ticketnew","isMapped":0,"city_id":null,"is_city_mapped":null,"state":"telangana","id":126,"city":"Hyderabad","state":"telangana","label":"Cinepolis CCPL Mall, Malkajgiri","address":"CCPL Mall, Vimala Devi Nagar Colony, Malkajgiri, Secunderabad, Telangana 500047, India","sessionCount":81},{"id":1022256,"pid":1707,"name":"PVR Inox RK Cineplex Hyderabad","address":"RK Complex, Road No.2, Opp: L.V.Prasad Eye Institute, Banjarahills, Hyderabad, Telangana 500034, India","pincode":"500034","lat":17.423301,"lon":78.427789,"cityId":12,"appCovrImgUrl":"","covrImgUrl":"","fnb":0,"mTkt":1,"bCode":"0","sTop":0,"isMerchantCancellable":0,"cinemaLogoUrl":"https://assetscdn1.paytm.com/images/cinema/PVR%20(1)-9f858660-e069-11ee-b37f-29404991a0ba.png","cinemaVideoUrl":"","appCoverVideoUrl":"","webCoverVideoUrl":"","amenities":null,"promos":null,"chainKey":"PVR","contentId":171162,"theatreGroupName":"","amenitiesOrder":null,"carouselAttachments":[],"isPassEnabled":1,"paytmCinemaId":1022256,"city":"Hyderabad","clientId":"ticketnew","isMapped":0,"city_id":null,"is_city_mapped":null,"state":"telangana","id":1022256,"city":"Hyderabad","state":"telangana","label":"PVR Inox RK Cineplex Hyderabad","address":"RK Complex, Road No.2, Opp: L.V.Prasad Eye Institute, Banjarahills, Hyderabad, Telangana 500034, India","sessionCount":43}],"filterData":{"minSTime":"02:00","maxSTime":"17:45","minPrice":50.0,"maxPrice":350.0,"premium":true,"freeSeats":false,"groupSeats":false,"tokenFeeSeats":false,"scnFrmts":["2D"],"sndFrmts":[],"mLangs":["Telugu"],"genres":["Drama"]}},"data":{"pageSize":100,"cinemasOrder":[14166,4348,9292,7543,4346,4360,25026,1022285,5122,1022283,1022282,1022281,9478,13958,1022280,10249,977,36376,1030419,1022290,3870,1021166,1020782,1020781,9123,1018796,1020780,1022251,1020777,1020776,1021025,38575,56048,52274,1022267,183,24951,1022263,1977,1020278,9338,124,126,1022256],"sessionDates":["2024-09-01","2024-09-02","2024-09-03","2024-09-04","2024-09-05"]},"pageData":{"sessions":{"25026":[{"sid":"13768","pid":3,"pkey":"miraj","cid":25026,"mid":"OB104Y","fid":"O0GvByvMx","showTime":"2024-09-02T17:20","closeTime":"2024-09-02T17:19","mandatoryItems":[],"areas":[{"code":"0000000006","label":"EXECUTIVEP","typeCode":"0013","sType":"fixed","sAvail":276,"sTotal":279,"price":175.0,"statusColor":"G"},{"code":"0000000001","label":"GOLD","typeCode":"0002","sType":"fixed","sAvail":15,"sTotal":15,"price":235.0,"statusColor":"G"},{"code":"0000000004","label":"EXECUTIVE","typeCode":"0005","sType":"fixed","sAvail":150,"sTotal":150,"price":175.0,"statusColor":"G"}],"total":444,"avail":441,"audi":"SCREEN 3","premium":0,"tFeePkupTime":0,"sType":0,"tFee":0,"grpSeats":0,"maxTkt":6,"lang":"Telugu","scrnFmt":"2D","gnrs":["Drama"],"statusColor":"G","subtitle":""}],"1022285":[{"sid":"3971","pid":1707,"pkey":"showbizz","cid":1022285,"mid":"OB104Y","fid":"O0GvByvMx","showTime":"2024-09-02T17:05","closeTime":"2024-09-02T17:04","mandatoryItems":[],"areas":[{"code":"CC","label":"CLASSIC","typeCode":"3971_CC","sType":"fixed","sAvail":162,"sTotal":181,"price":200.0,"statusColor":"G"}],"total":181,"avail":162,"audi":"AUDI 04","premium":0,"tFeePkupTime":0,"sType":0,"tFee":0,"grpSeats":0,"maxTkt":6,"lang":"Telugu","scrnFmt":"2D","gnrs":["Drama"],"statusColor":"G"}],"5122":[{"sid":"56762","pid":55,"pkey":"mt","cid":5122,"mid":"OB104Y","fid":"O0GvByvMx","showTime":"2024-09-02T10:30","closeTime":"2024-09-02T10:29","mandatoryItems":[],"areas":[{"code":"0000000007","label":"PLATINUM RECLINERS","typeCode":"0009","sType":"fixed","sAvail":24,"sTotal":24,"price":350.0,"statusColor":"G"},{"code":"0000000006","label":"PLATINUM PREMIUM RECLINER","typeCode":"0008","sType":"fixed","sAvail":15,"sTotal":15,"price":350.0,"statusColor":"G"}],"total":39,"avail":39,"audi":"SCREEN 2","premium":0,"premiumLabel":"RECLINER","tFeePkupTime":0,"sType":0,"tFee":0,"grpSeats":0,"maxTkt":6,"lang":"Telugu","scrnFmt":"2D","gnrs":["Drama"],"statusColor":"G","subtitle":""},{"sid":"56761","pid":55,"pkey":"mt","cid":5122,"mid":"OB104Y","fid":"O0GvByvMx","showTime":"2024-09-02T07:30","closeTime":"2024-09-02T07:29","mandatoryItems":[],"areas":[{"code":"0000000007","label":"PLATINUM RECLINERS","typeCode":"0009","sType":"fixed","sAvail":24,"sTotal":24,"price":350.0,"statusColor":"G"},{"code":"0000000006","label":"PLATINUM PREMIUM RECLINER","typeCode":"0008","sType":"fixed","sAvail":12,"sTotal":15,"price":350.0,"statusColor":"G"}],"total":39,"avail":36,"audi":"SCREEN 2","premium":0,"premiumLabel":"RECLINER","tFeePkupTime":0,"sType":0,"tFee":0,"grpSeats":0,"maxTkt":6,"lang":"Telugu","scrnFmt":"2D","gnrs":["Drama"],"statusColor":"G","subtitle":""},{"sid":"56760","pid":55,"pkey":"mt","cid":5122,"mid":"OB104Y","fid":"O0GvByvMx","showTime":"2024-09-02T04:30","closeTime":"2024-09-02T04:29","mandatoryItems":[],"areas":[{"code":"0000000007","label":"PLATINUM RECLINERS","typeCode":"0009","sType":"fixed","sAvail":24,"sTotal":24,"price":350.0,"statusColor":"G"},{"code":"0000000006","label":"PLATINUM PREMIUM RECLINER","typeCode":"0008","sType":"fixed","sAvail":2,"sTotal":15,"price":350.0,"statusColor":"Y"}],"total":39,"avail":26,"audi":"SCREEN 2","premium":0,"premiumLabel":"RECLINER","tFeePkupTime":0,"sType":0,"tFee":0,"grpSeats":0,"maxTkt":6,"lang":"Telugu","scrnFmt":"2D","gnrs":["Drama"],"statusColor":"G","subtitle":""}],"1022283":[{"sid":"5980","pid":1707,"pkey":"showbizz","cid":1022283,"mid":"OB104Y","fid":"O0GvByvMx","showTime":"2024-09-02T17:10","closeTime":"2024-09-02T17:09","mandatoryItems":[],"areas":[{"code":"CC","label":"CLASSIC","typeCode":"5980_CC","sType":"fixed","sAvail":146,"sTotal":147,"price":200.0,"statusColor":"G"}],"total":147,"avail":146,"audi":"AUDI 01","premium":0,"tFeePkupTime":0,"sType":0,"tFee":0,"grpSeats":0,"maxTkt":6,"lang":"Telugu","scrnFmt":"2D","gnrs":["Drama"],"statusColor":"G"}],"1022282":[{"sid":"6972","pid":1707,"pkey":"showbizz","cid":1022282,"mid":"OB104Y","fid":"O0GvByvMx","showTime":"2024-09-02T17:10","closeTime":"2024-09-02T17:09","mandatoryItems":[],"areas":[{"code":"CC","label":"CLASSIC","typeCode":"6972_CC","sType":"fixed","sAvail":140,"sTotal":140,"price":200.0,"statusColor":"G"},{"code":"RE","label":"RECLINER","typeCode":"6972_RE","sType":"fixed","sAvail":10,"sTotal":10,"price":300.0,"statusColor":"G"}],"total":150,"avail":150,"audi":"AUDI 03","premium":0,"tFeePkupTime":0,"sType":0,"tFee":0,"grpSeats":0,"maxTkt":6,"lang":"Telugu","scrnFmt":"2D","gnrs":["Drama"],"statusColor":"G"}],"1022281":[{"sid":"7543","pid":1707,"pkey":"showbizz","cid":1022281,"mid":"OB104Y","fid":"O0GvByvMx","showTime":"2024-09-02T17:20","closeTime":"2024-09-02T17:19","mandatoryItems":[],"areas":[{"code":"CL","label":"CLASSIC","typeCode":"7543_CL","sType":"fixed","sAvail":122,"sTotal":139,"price":200.0,"statusColor":"G"}],"total":139,"avail":122,"audi":"AUDI 04","premium":0,"tFeePkupTime":0,"sType":0,"tFee":0,"grpSeats":0,"maxTkt":6,"lang":"Telugu","scrnFmt":"2D","gnrs":["Drama"],"statusColor":"G"}],"9478":[{"sid":"23037__1725292800__890__323655","pid":1139,"pkey":"ticketnew","cid":9478,"mid":"OB104Y","fid":"O0GvByvMx","showTime":"2024-09-02T16:00","closeTime":"2024-09-02T15:20","mandatoryItems":[],"areas":[{"code":"10","label":"Balcony","typeCode":"23037__1725292800__890__323655_Balcony","sType":"fixed","sAvail":99,"sTotal":99,"price":150.0,"statusColor":"G"},{"code":"20","label":"Sofa Class","typeCode":"23037__1725292800__890__323655_Sofa Class","sType":"fixed","sAvail":0,"sTotal":0,"price":150.0,"statusColor":"D"},{"code":"30","label":"Reserved Class","typeCode":"23037__1725292800__890__323655_Reserved Class","sType":"fixed","sAvail":32,"sTotal":32,"price":100.0,"statusColor":"G"},{"code":"40","label":"Second Class","typeCode":"23037__1725292800__890__323655_Second Class","sType":"fixed","sAvail":32,"sTotal":32,"price":70.0,"statusColor":"G"}],"total":163,"avail":163,"audi":"Sri Lakshmikalamandir ","premium":0,"tFeePkupTime":0,"sType":0,"tFee":0,"grpSeats":0,"maxTkt":6,"lang":"Telugu","scrnFmt":"2D","gnrs":["Drama"],"statusColor":"G","subtitle":""},{"sid":"23037__1725267600__890__323653","pid":1139,"pkey":"ticketnew","cid":9478,"mid":"OB104Y","fid":"O0GvByvMx","showTime":"2024-09-02T09:00","closeTime":"2024-09-02T08:20","mandatoryItems":[],"areas":[{"code":"10","label":"Balcony","typeCode":"23037__1725267600__890__323653_Balcony","sType":"fixed","sAvail":99,"sTotal":99,"price":150.0,"statusColor":"G"},{"code":"20","label":"Sofa Class","typeCode":"23037__1725267600__890__323653_Sofa Class","sType":"fixed","sAvail":0,"sTotal":0,"price":150.0,"statusColor":"D"},{"code":"30","label":"Reserved Class","typeCode":"23037__1725267600__890__323653_Reserved Class","sType":"fixed","sAvail":32,"sTotal":32,"price":100.0,"statusColor":"G"},{"code":"40","label":"Second Class","typeCode":"23037__1725267600__890__323653_Second Class","sType":"fixed","sAvail":32,"sTotal":32,"price":70.0,"statusColor":"G"}],"total":163,"avail":163,"audi":"Sri Lakshmikalamandir ","premium":0,"tFeePkupTime":0,"sType":0,"tFee":0,"grpSeats":0,"maxTkt":6,"lang":"Telugu","scrnFmt":"2D","gnrs":["Drama"],"statusColor":"G","subtitle":""},{"sid":"23037__1725282000__890__323654","pid":1139,"pkey":"ticketnew","cid":9478,"mid":"OB104Y","fid":"O0GvByvMx","showTime":"2024-09-02T13:00","closeTime":"2024-09-02T12:20","mandatoryItems":[],"areas":[{"code":"10","label":"Balcony","typeCode":"23037__1725282000__890__323654_Balcony","sType":"fixed","sAvail":99,"sTotal":99,"price":150.0,"statusColor":"G"},{"code":"20","label":"Sofa Class","typeCode":"23037__1725282000__890__323654_Sofa Class","sType":"fixed","sAvail":0,"sTotal":0,"price":150.0,"statusColor":"D"},{"code":"30","label":"Reserved Class","typeCode":"23037__1725282000__890__323654_Reserved Class","sType":"fixed","sAvail":32,"sTotal":32,"price":100.0,"statusColor":"G"},{"code":"40","label":"Second Class","typeCode":"23037__1725282000__890__323654_Second Class","sType":"fixed","sAvail":32,"sTotal":32,"price":70.0,"statusColor":"G"}],"total":163,"avail":163,"audi":"Sri Lakshmikalamandir ","premium":0,"tFeePkupTime":0,"sType":0,"tFee":0,"grpSeats":0,"maxTkt":6,"lang":"Telugu","scrnFmt":"2D","gnrs":["Drama"],"statusColor":"G","subtitle":""},{"sid":"23037__1725256800__890__323652","pid":1139,"pkey":"ticketnew","cid":9478,"mid":"OB104Y","fid":"O0GvByvMx","showTime":"2024-09-02T06:00","closeTime":"2024-09-02T05:20","mandatoryItems":[],"areas":[{"code":"10","label":"Balcony","typeCode":"23037__1725256800__890__323652_Balcony","sType":"fixed","sAvail":99,"sTotal":99,"price":150.0,"statusColor":"G"},{"code":"20","label":"Sofa Class","typeCode":"23037__1725256800__890__323652_Sofa Class","sType":"fixed","sAvail":0,"sTotal":0,"price":150.0,"statusColor":"D"},{"code":"30","label":"Reserved Class","typeCode":"23037__1725256800__890__323652_Reserved Class","sType":"fixed","sAvail":32,"sTotal":32,"price":100.0,"statusColor":"G"},{"code":"40","label":"Second Class","typeCode":"23037__1725256800__890__323652_Second Class","sType":"fixed","sAvail":19,"sTotal":32,"price":70.0,"statusColor":"G"}],"total":163,"avail":150,"audi":"Sri Lakshmikalamandir ","premium":0,"tFeePkupTime":0,"sType":0,"tFee":0,"grpSeats":0,"maxTkt":6,"lang":"Telugu","scrnFmt":"2D","gnrs":["Drama"],"statusColor":"G","subtitle":""}],"13958":[{"sid":"23037__1725256800__4101__8053","pid":750,"pkey":"ticketnew","cid":13958,"mid":"OB104Y","fid":"O0GvByvMx","showTime":"2024-09-02T06:00","closeTime":"2024-09-02T06:00","mandatoryItems":[],"areas":[{"code":"1","label":"BALCONY","typeCode":"23037__1725256800__4101__8053_BALCONY","sType":"fixed","sAvail":367,"sTotal":369,"price":150.0,"statusColor":"G"},{"code":"2","label":"FIRST CLASS","typeCode":"23037__1725256800__4101__8053_FIRST CLASS","sType":"fixed","sAvail":156,"sTotal":156,"price":100.0,"statusColor":"G"},{"code":"3","label":"SECOND CLASS","typeCode":"23037__1725256800__4101__8053_SECOND CLASS","sType":"fixed","sAvail":101,"sTotal":101,"price":50.0,"statusColor":"G"}],"total":626,"avail":624,"audi":"SVC Srilakshmi","premium":0,"tFeePkupTime":0,"sType":0,"tFee":0,"grpSeats":0,"maxTkt":6,"lang":"Telugu","scrnFmt":"2D","gnrs":["Drama"],"statusColor":"G","subtitle":""},{"sid":"23037__1725244200__4101__8052","pid":750,"pkey":"ticketnew","cid":13958,"mid":"OB104Y","fid":"O0GvByvMx","showTime":"2024-09-02T02:30","closeTime":"2024-09-02T02:30","mandatoryItems":[],"areas":[{"code":"1","label":"BALCONY","typeCode":"23037__1725244200__4101__8052_BALCONY","sType":"fixed","sAvail":369,"sTotal":369,"price":150.0,"statusColor":"G"},{"code":"2","label":"FIRST CLASS","typeCode":"23037__1725244200__4101__8052_FIRST CLASS","sType":"fixed","sAvail":150,"sTotal":156,"price":100.0,"statusColor":"G"},{"code":"3","label":"SECOND CLASS","typeCode":"23037__1725244200__4101__8052_SECOND CLASS","sType":"fixed","sAvail":96,"sTotal":101,"price":50.0,"statusColor":"G"}],"total":626,"avail":615,"audi":"SVC Srilakshmi","premium":0,"tFeePkupTime":0,"sType":0,"tFee":0,"grpSeats":0,"maxTkt":6,"lang":"Telugu","scrnFmt":"2D","gnrs":["Drama"],"statusColor":"G","subtitle":""},{"sid":"23037__1725282000__4101__8055","pid":750,"pkey":"ticketnew","cid":13958,"mid":"OB104Y","fid":"O0GvByvMx","showTime":"2024-09-02T13:00","closeTime":"2024-09-02T13:00","mandatoryItems":[],"areas":[{"code":"1","label":"BALCONY","typeCode":"23037__1725282000__4101__8055_BALCONY","sType":"fixed","sAvail":367,"sTotal":369,"price":150.0,"statusColor":"G"},{"code":"2","label":"FIRST CLASS","typeCode":"23037__1725282000__4101__8055_FIRST CLASS","sType":"fixed","sAvail":156,"sTotal":156,"price":100.0,"statusColor":"G"},{"code":"3","label":"SECOND CLASS","typeCode":"23037__1725282000__4101__8055_SECOND CLASS","sType":"fixed","sAvail":78,"sTotal":101,"price":50.0,"statusColor":"G"}],"total":626,"avail":601,"audi":"SVC Srilakshmi","premium":0,"tFeePkupTime":0,"sType":0,"tFee":0,"grpSeats":0,"maxTkt":6,"lang":"Telugu","scrnFmt":"2D","gnrs":["Drama"],"statusColor":"G","subtitle":""}],"1022280":[{"sid":"5132","pid":1707,"pkey":"showbizz","cid":1022280,"mid":"OB104Y","fid":"O0GvByvMx","showTime":"2024-09-02T17:20","closeTime":"2024-09-02T17:19","mandatoryItems":[],"areas":[{"code":"CC","label":"CLASSIC","typeCode":"5132_CC","sType":"fixed","sAvail":84,"sTotal":136,"price":200.0,"statusColor":"G"},{"code":"RE","label":"RECLINER","typeCode":"5132_RE","sType":"fixed","sAvail":4,"sTotal":9,"price":300.0,"statusColor":"G"}],"total":145,"avail":88,"audi":"AUDI 05","premium":0,"tFeePkupTime":0,"sType":0,"tFee":0,"grpSeats":0,"maxTkt":6,"lang":"Telugu","scrnFmt":"2D","gnrs":["Drama"],"statusColor":"G"}],"4360":[{"sid":"23037__1725244200__1737__322830","pid":736,"pkey":"ticketnew","cid":4360,"mid":"OB104Y","fid":"O0GvByvMx","showTime":"2024-09-02T02:30","closeTime":"2024-09-02T01:30","mandatoryItems":[],"areas":[{"code":"10","label":"BALCONY","typeCode":"23037__1725244200__1737__322830_BALCONY","sType":"fixed","sAvail":0,"sTotal":90,"price":150.0,"statusColor":"D"},{"code":"20","label":"BOXA","typeCode":"23037__1725244200__1737__322830_BOXA","sType":"fixed","sAvail":0,"sTotal":0,"price":150.0,"statusColor":"D"},{"code":"30","label":"BOXB","typeCode":"23037__1725244200__1737__322830_BOXB","sType":"fixed","sAvail":0,"sTotal":0,"price":150.0,"statusColor":"D"},{"code":"40","label":"FIRST CLASS ","typeCode":"23037__1725244200__1737__322830_FIRST CLASS ","sType":"fixed","sAvail":0,"sTotal":104,"price":100.0,"statusColor":"D"},{"code":"50","label":"SECOND CLASS","typeCode":"23037__1725244200__1737__322830_SECOND CLASS","sType":"fixed","sAvail":0,"sTotal":38,"price":50.0,"statusColor":"D"}],"total":232,"avail":0,"audi":"Viswanath Theatre","lang":"Telugu","scrnFmt":"2D","gnrs":["Drama"],"statusColor":"D","subtitle":""}],"10249":[{"sid":"22569","pid":3,"pkey":"miraj","cid":10249,"mid":"OB104Y","fid":"O0GvByvMx","showTime":"2024-09-02T17:10","closeTime":"2024-09-02T17:09","mandatoryItems":[],"areas":[{"code":"0000000001","label":"EXECUTIVE","typeCode":"0021","sType":"fixed","sAvail":290,"sTotal":292,"price":200.0,"statusColor":"G"},{"code":"0000000002","label":"GOLD","typeCode":"0001","sType":"fixed","sAvail":32,"sTotal":32,"price":300.0,"statusColor":"G"}],"total":324,"avail":322,"audi":"SCREEN 3","premium":0,"tFeePkupTime":0,"sType":0,"tFee":0,"grpSeats":0,"maxTkt":6,"lang":"Telugu","scrnFmt":"2D","gnrs":["Drama"],"statusColor":"G","subtitle":""}],"9292":[{"sid":"23037__1725266700__2111__8744","pid":1109,"pkey":"ticketnew","cid":9292,"mid":"OB104Y","fid":"O0GvByvMx","showTime":"2024-09-02T08:45","closeTime":"2024-09-02T08:45","mandatoryItems":[],"areas":[{"code":"101","label":"DIAMOND BOX","typeCode":"23037__1725266700__2111__8744_DIAMOND BOX","sType":"fixed","sAvail":0,"sTotal":64,"price":150.0,"statusColor":"D"},{"code":"102","label":"DIAMOND ","typeCode":"23037__1725266700__2111__8744_DIAMOND ","sType":"fixed","sAvail":160,"sTotal":205,"price":150.0,"statusColor":"G"},{"code":"103","label":"PLATINUM","typeCode":"23037__1725266700__2111__8744_PLATINUM","sType":"fixed","sAvail":24,"sTotal":24,"price":250.0,"statusColor":"G"},{"code":"104","label":"DIAMOND","typeCode":"23037__1725266700__2111__8744_DIAMOND","sType":"fixed","sAvail":120,"sTotal":180,"price":150.0,"statusColor":"G"},{"code":"105","label":"GOLD","typeCode":"23037__1725266700__2111__8744_GOLD","sType":"fixed","sAvail":0,"sTotal":212,"price":110.0,"statusColor":"D"},{"code":"106","label":"SILVER","typeCode":"23037__1725266700__2111__8744_SILVER","sType":"fixed","sAvail":0,"sTotal":101,"price":50.0,"statusColor":"D"}],"total":786,"avail":304,"audi":"Rajadhani 70MM","premium":1,"premiumLabel":"2K DOLBY 7.1","tFeePkupTime":0,"sType":0,"tFee":0,"grpSeats":0,"maxTkt":6,"lang":"Telugu","scrnFmt":"2D","gnrs":["Drama"],"statusColor":"Y","subtitle":""},{"sid":"23037__1725245100__2111__8742","pid":1109,"pkey":"ticketnew","cid":9292,"mid":"OB104Y","fid":"O0GvByvMx","showTime":"2024-09-02T02:45","closeTime":"2024-09-02T02:45","mandatoryItems":[],"areas":[{"code":"101","label":"DIAMOND BOX","typeCode":"23037__1725245100__2111__8742_DIAMOND BOX","sType":"fixed","sAvail":0,"sTotal":64,"price":150.0,"statusColor":"D"},{"code":"102","label":"DIAMOND ","typeCode":"23037__1725245100__2111__8742_DIAMOND ","sType":"fixed","sAvail":124,"sTotal":205,"price":150.0,"statusColor":"G"},{"code":"103","label":"PLATINUM","typeCode":"23037__1725245100__2111__8742_PLATINUM","sType":"fixed","sAvail":21,"sTotal":24,"price":250.0,"statusColor":"G"},{"code":"104","label":"DIAMOND","typeCode":"23037__1725245100__2111__8742_DIAMOND","sType":"fixed","sAvail":83,"sTotal":180,"price":150.0,"statusColor":"G"},{"code":"105","label":"GOLD","typeCode":"23037__1725245100__2111__8742_GOLD","sType":"fixed","sAvail":0,"sTotal":212,"price":110.0,"statusColor":"D"},{"code":"106","label":"SILVER","typeCode":"23037__1725245100__2111__8742_SILVER","sType":"fixed","sAvail":0,"sTotal":101,"price":50.0,"statusColor":"D"}],"total":786,"avail":228,"audi":"Rajadhani 70MM","premium":1,"premiumLabel":"2K DOLBY 7.1","tFeePkupTime":0,"sType":0,"tFee":0,"grpSeats":0,"maxTkt":6,"lang":"Telugu","scrnFmt":"2D","gnrs":["Drama"],"statusColor":"Y","subtitle":""},{"sid":"23037__1725255900__2111__8743","pid":1109,"pkey":"ticketnew","cid":9292,"mid":"OB104Y","fid":"O0GvByvMx","showTime":"2024-09-02T05:45","closeTime":"2024-09-02T05:45","mandatoryItems":[],"areas":[{"code":"101","label":"DIAMOND BOX","typeCode":"23037__1725255900__2111__8743_DIAMOND BOX","sType":"fixed","sAvail":0,"sTotal":64,"price":150.0,"statusColor":"D"},{"code":"102","label":"DIAMOND ","typeCode":"23037__1725255900__2111__8743_DIAMOND ","sType":"fixed","sAvail":135,"sTotal":205,"price":150.0,"statusColor":"G"},{"code":"103","label":"PLATINUM","typeCode":"23037__1725255900__2111__8743_PLATINUM","sType":"fixed","sAvail":24,"sTotal":24,"price":250.0,"statusColor":"G"},{"code":"104","label":"DIAMOND","typeCode":"23037__1725255900__2111__8743_DIAMOND","sType":"fixed","sAvail":115,"sTotal":180,"price":150.0,"statusColor":"G"},{"code":"105","label":"GOLD","typeCode":"23037__1725255900__2111__8743_GOLD","sType":"fixed","sAvail":0,"sTotal":212,"price":110.0,"statusColor":"D"},{"code":"106","label":"SILVER","typeCode":"23037__1725255900__2111__8743_SILVER","sType":"fixed","sAvail":0,"sTotal":101,"price":50.0,"statusColor":"D"}],"total":786,"avail":274,"audi":"Rajadhani 70MM","premium":1,"premiumLabel":"2K DOLBY 7.1","tFeePkupTime":0,"sType":0,"tFee":0,"grpSeats":0,"maxTkt":6,"lang":"Telugu","scrnFmt":"2D","gnrs":["Drama"],"statusColor":"Y","subtitle":""},{"sid":"23037__1725291900__2111__8746","pid":1109,"pkey":"ticketnew","cid":9292,"mid":"OB104Y","fid":"O0GvByvMx","showTime":"2024-09-02T15:45","closeTime":"2024-09-02T15:45","mandatoryItems":[],"areas":[{"code":"101","label":"DIAMOND BOX","typeCode":"23037__1725291900__2111__8746_DIAMOND BOX","sType":"fixed","sAvail":0,"sTotal":64,"price":150.0,"statusColor":"D"},{"code":"102","label":"DIAMOND ","typeCode":"23037__1725291900__2111__8746_DIAMOND ","sType":"fixed","sAvail":147,"sTotal":205,"price":150.0,"statusColor":"G"},{"code":"103","label":"PLATINUM","typeCode":"23037__1725291900__2111__8746_PLATINUM","sType":"fixed","sAvail":24,"sTotal":24,"price":250.0,"statusColor":"G"},{"code":"104","label":"DIAMOND","typeCode":"23037__1725291900__2111__8746_DIAMOND","sType":"fixed","sAvail":118,"sTotal":180,"price":150.0,"statusColor":"G"},{"code":"105","label":"GOLD","typeCode":"23037__1725291900__2111__8746_GOLD","sType":"fixed","sAvail":0,"sTotal":212,"price":110.0,"statusColor":"D"},{"code":"106","label":"SILVER","typeCode":"23037__1725291900__2111__8746_SILVER","sType":"fixed","sAvail":0,"sTotal":101,"price":50.0,"statusColor":"D"}],"total":786,"avail":289,"audi":"Rajadhani 70MM","premium":1,"premiumLabel":"2K DOLBY 7.1","tFeePkupTime":0,"sType":0,"tFee":0,"grpSeats":0,"maxTkt":6,"lang":"Telugu","scrnFmt":"2D","gnrs":["Drama"],"statusColor":"Y","subtitle":""},{"sid":"23037__1725281100__2111__8745","pid":1109,"pkey":"ticketnew","cid":9292,"mid":"OB104Y","fid":"O0GvByvMx","showTime":"2024-09-02T12:45","closeTime":"2024-09-02T12:45","mandatoryItems":[],"areas":[{"code":"101","label":"DIAMOND BOX","typeCode":"23037__1725281100__2111__8745_DIAMOND BOX","sType":"fixed","sAvail":0,"sTotal":64,"price":150.0,"statusColor":"D"},{"code":"102","label":"DIAMOND ","typeCode":"23037__1725281100__2111__8745_DIAMOND ","sType":"fixed","sAvail":149,"sTotal":205,"price":150.0,"statusColor":"G"},{"code":"103","label":"PLATINUM","typeCode":"23037__1725281100__2111__8745_PLATINUM","sType":"fixed","sAvail":24,"sTotal":24,"price":250.0,"statusColor":"G"},{"code":"104","label":"DIAMOND","typeCode":"23037__1725281100__2111__8745_DIAMOND","sType":"fixed","sAvail":120,"sTotal":180,"price":150.0,"statusColor":"G"},{"code":"105","label":"GOLD","typeCode":"23037__1725281100__2111__8745_GOLD","sType":"fixed","sAvail":0,"sTotal":212,"price":110.0,"statusColor":"D"},{"code":"106","label":"SILVER","typeCode":"23037__1725281100__2111__8745_SILVER","sType":"fixed","sAvail":0,"sTotal":101,"price":50.0,"statusColor":"D"}],"total":786,"avail":293,"audi":"Rajadhani 70MM","premium":1,"premiumLabel":"2K DOLBY 7.1","tFeePkupTime":0,"sType":0,"tFee":0,"grpSeats":0,"maxTkt":6,"lang":"Telugu","scrnFmt":"2D","gnrs":["Drama"],"statusColor":"Y","subtitle":""}],"977":[{"sid":"52af9394-eea4-4b21-9e8d-d1050d0c716e","pid":19,"pkey":"jt","cid":977,"mid":"OB104Y","fid":"O0GvByvMx","showTime":"2024-09-02T05:45","closeTime":"2024-09-02T05:15","mandatoryItems":[],"areas":[{"code":"Gold","label":"Gold","typeCode":"Gold","sType":"fixed","sAvail":72,"sTotal":288,"price":150.0,"statusColor":"Y"},{"code":"Silver","label":"Silver","typeCode":"Silver","sType":"fixed","sAvail":24,"sTotal":72,"price":75.0,"statusColor":"Y"}],"total":360,"avail":96,"audi":"Geetha","premium":0,"tFeePkupTime":0,"sType":0,"tFee":0,"grpSeats":0,"maxTkt":6,"lang":"Telugu","scrnFmt":"2D","gnrs":["Drama"],"statusColor":"Y"},{"sid":"76e8903d-be69-4907-b221-5defc56cb9e9","pid":19,"pkey":"jt","cid":977,"mid":"OB104Y","fid":"O0GvByvMx","showTime":"2024-09-02T12:45","closeTime":"2024-09-02T12:15","mandatoryItems":[],"areas":[{"code":"Gold","label":"Gold","typeCode":"Gold","sType":"fixed","sAvail":72,"sTotal":288,"price":150.0,"statusColor":"Y"},{"code":"Silver","label":"Silver","typeCode":"Silver","sType":"fixed","sAvail":24,"sTotal":72,"price":75.0,"statusColor":"Y"}],"total":360,"avail":96,"audi":"Geetha","premium":0,"tFeePkupTime":0,"sType":0,"tFee":0,"grpSeats":0,"maxTkt":6,"lang":"Telugu","scrnFmt":"2D","gnrs":["Drama"],"statusColor":"Y"},{"sid":"836eb637-dbb3-4411-b25b-48d5045a9fcd","pid":19,"pkey":"jt","cid":977,"mid":"OB104Y","fid":"O0GvByvMx","showTime":"2024-09-02T08:45","closeTime":"2024-09-02T08:15","mandatoryItems":[],"areas":[{"code":"Gold","label":"Gold","typeCode":"Gold","sType":"fixed","sAvail":72,"sTotal":288,"price":150.0,"statusColor":"Y"},{"code":"Silver","label":"Silver","typeCode":"Silver","sType":"fixed","sAvail":24,"sTotal":72,"price":75.0,"statusColor":"Y"}],"total":360,"avail":96,"audi":"Geetha","premium":0,"tFeePkupTime":0,"sType":0,"tFee":0,"grpSeats":0,"maxTkt":6,"lang":"Telugu","scrnFmt":"2D","gnrs":["Drama"],"statusColor":"Y"},{"sid":"fd0bbb7b-caab-4bde-b7e9-0b8813b72cfe","pid":19,"pkey":"jt","cid":977,"mid":"OB104Y","fid":"O0GvByvMx","showTime":"2024-09-02T15:45","closeTime":"2024-09-02T15:15","mandatoryItems":[],"areas":[{"code":"Gold","label":"Gold","typeCode":"Gold","sType":"fixed","sAvail":72,"sTotal":288,"price":150.0,"statusColor":"Y"},{"code":"Silver","label":"Silver","typeCode":"Silver","sType":"fixed","sAvail":24,"sTotal":72,"price":75.0,"statusColor":"Y"}],"total":360,"avail":96,"audi":"Geetha","premium":0,"tFeePkupTime":0,"sType":0,"tFee":0,"grpSeats":0,"maxTkt":6,"lang":"Telugu","scrnFmt":"2D","gnrs":["Drama"],"statusColor":"Y"}],"14166":[{"sid":"23037__1725242400__4104__7033","pid":736,"pkey":"ticketnew","cid":14166,"mid":"OB104Y","fid":"O0GvByvMx","showTime":"2024-09-02T02:00","closeTime":"2024-09-02T01:55","mandatoryItems":[],"areas":[{"code":"1","label":"BOX","typeCode":"23037__1725242400__4104__7033_BOX","sType":"fixed","sAvail":0,"sTotal":44,"price":150.0,"statusColor":"D"},{"code":"2","label":"PLATINUM","typeCode":"23037__1725242400__4104__7033_PLATINUM","sType":"fixed","sAvail":0,"sTotal":486,"price":150.0,"statusColor":"D"},{"code":"3","label":"GOLD","typeCode":"23037__1725242400__4104__7033_GOLD","sType":"fixed","sAvail":0,"sTotal":52,"price":100.0,"statusColor":"D"},{"code":"4","label":"SILVER","typeCode":"23037__1725242400__4104__7033_SILVER","sType":"fixed","sAvail":0,"sTotal":154,"price":50.0,"statusColor":"D"}],"total":736,"avail":0,"audi":"Sangeetha","lang":"Telugu","scrnFmt":"2D","gnrs":["Drama"],"statusColor":"D","subtitle":""}],"36376":[{"sid":"23037__1725255000__5205__4264","pid":1595,"pkey":"ticketnew","cid":36376,"mid":"OB104Y","fid":"O0GvByvMx","showTime":"2024-09-02T05:30","closeTime":"2024-09-02T05:30","mandatoryItems":[],"areas":[{"code":"10","label":"BALCONY","typeCode":"23037__1725255000__5205__4264_BALCONY","sType":"fixed","sAvail":277,"sTotal":410,"price":150.0,"statusColor":"G"},{"code":"20","label":"DRESS CIRCLE","typeCode":"23037__1725255000__5205__4264_DRESS CIRCLE","sType":"fixed","sAvail":164,"sTotal":245,"price":100.0,"statusColor":"G"},{"code":"21","label":"SECOND CLASS","typeCode":"23037__1725255000__5205__4264_SECOND CLASS","sType":"fixed","sAvail":0,"sTotal":165,"price":50.0,"statusColor":"D"}],"total":820,"avail":441,"audi":"Sree Ramana Gold 4K","premium":0,"premiumLabel":"DOLBY 7.1","tFeePkupTime":0,"sType":0,"tFee":0,"grpSeats":0,"maxTkt":6,"lang":"Telugu","scrnFmt":"2D","gnrs":["Drama"],"statusColor":"G","subtitle":""},{"sid":"23037__1725265800__5205__4265","pid":1595,"pkey":"ticketnew","cid":36376,"mid":"OB104Y","fid":"O0GvByvMx","showTime":"2024-09-02T08:30","closeTime":"2024-09-02T08:30","mandatoryItems":[],"areas":[{"code":"10","label":"BALCONY","typeCode":"23037__1725265800__5205__4265_BALCONY","sType":"fixed","sAvail":274,"sTotal":410,"price":150.0,"statusColor":"G"},{"code":"20","label":"DRESS CIRCLE","typeCode":"23037__1725265800__5205__4265_DRESS CIRCLE","sType":"fixed","sAvail":194,"sTotal":245,"price":100.0,"statusColor":"G"},{"code":"21","label":"SECOND CLASS","typeCode":"23037__1725265800__5205__4265_SECOND CLASS","sType":"fixed","sAvail":0,"sTotal":165,"price":50.0,"statusColor":"D"}],"total":820,"avail":468,"audi":"Sree Ramana Gold 4K","premium":0,"premiumLabel":"DOLBY 7.1","tFeePkupTime":0,"sType":0,"tFee":0,"grpSeats":0,"maxTkt":6,"lang":"Telugu","scrnFmt":"2D","gnrs":["Drama"],"statusColor":"G","subtitle":""},{"sid":"23037__1725280200__5205__4266","pid":1595,"pkey":"ticketnew","cid":36376,"mid":"OB104Y","fid":"O0GvByvMx","showTime":"2024-09-02T12:30","closeTime":"2024-09-02T12:30","mandatoryItems":[],"areas":[{"code":"10","label":"BALCONY","typeCode":"23037__1725280200__5205__4266_BALCONY","sType":"fixed","sAvail":267,"sTotal":410,"price":150.0,"statusColor":"G"},{"code":"20","label":"DRESS CIRCLE","typeCode":"23037__1725280200__5205__4266_DRESS CIRCLE","sType":"fixed","sAvail":171,"sTotal":245,"price":100.0,"statusColor":"G"},{"code":"21","label":"SECOND CLASS","typeCode":"23037__1725280200__5205__4266_SECOND CLASS","sType":"fixed","sAvail":0,"sTotal":165,"price":50.0,"statusColor":"D"}],"total":820,"avail":438,"audi":"Sree Ramana Gold 4K","premium":0,"premiumLabel":"DOLBY 7.1","tFeePkupTime":0,"sType":0,"tFee":0,"grpSeats":0,"maxTkt":6,"lang":"Telugu","scrnFmt":"2D","gnrs":["Drama"],"statusColor":"G","subtitle":""},{"sid":"23037__1725291000__5205__4267","pid":1595,"pkey":"ticketnew","cid":36376,"mid":"OB104Y","fid":"O0GvByvMx","showTime":"2024-09-02T15:30","closeTime":"2024-09-02T15:30","mandatoryItems":[],"areas":[{"code":"10","label":"BALCONY","typeCode":"23037__1725291000__5205__4267_BALCONY","sType":"fixed","sAvail":268,"sTotal":410,"price":150.0,"statusColor":"G"},{"code":"20","label":"DRESS CIRCLE","typeCode":"23037__1725291000__5205__4267_DRESS CIRCLE","sType":"fixed","sAvail":182,"sTotal":245,"price":100.0,"statusColor":"G"},{"code":"21","label":"SECOND CLASS","typeCode":"23037__1725291000__5205__4267_SECOND CLASS","sType":"fixed","sAvail":0,"sTotal":165,"price":50.0,"statusColor":"D"}],"total":820,"avail":450,"audi":"Sree Ramana Gold 4K","premium":0,"premiumLabel":"DOLBY 7.1","tFeePkupTime":0,"sType":0,"tFee":0,"grpSeats":0,"maxTkt":6,"lang":"Telugu","scrnFmt":"2D","gnrs":["Drama"],"statusColor":"G","subtitle":""}],"1030419":[{"sid":"1405","pid":1707,"pkey":"showbizz","cid":1030419,"mid":"OB104Y","fid":"O0GvByvMx","showTime":"2024-09-02T17:20","closeTime":"2024-09-02T17:19","mandatoryItems":[],"areas":[{"code":"CL","label":"CLASSIC","typeCode":"1405_CL","sType":"fixed","sAvail":147,"sTotal":190,"price":200.0,"statusColor":"G"}],"total":190,"avail":147,"audi":"Screen 4","premium":0,"tFeePkupTime":0,"sType":0,"tFee":0,"grpSeats":0,"maxTkt":6,"lang":"Telugu","scrnFmt":"2D","gnrs":["Drama"],"statusColor":"G"}],"1022290":[{"sid":"5047","pid":1707,"pkey":"showbizz","cid":1022290,"mid":"OB104Y","fid":"O0GvByvMx","showTime":"2024-09-02T17:15","closeTime":"2024-09-02T17:14","mandatoryItems":[],"areas":[{"code":"CC","label":"CLASSIC","typeCode":"5047_CC","sType":"fixed","sAvail":36,"sTotal":140,"price":200.0,"statusColor":"Y"},{"code":"RE","label":"RECLINER","typeCode":"5047_RE","sType":"fixed","sAvail":8,"sTotal":14,"price":300.0,"statusColor":"G"}],"total":154,"avail":44,"audi":"AUDI 04","premium":0,"tFeePkupTime":0,"sType":0,"tFee":0,"grpSeats":0,"maxTkt":6,"lang":"Telugu","scrnFmt":"2D","gnrs":["Drama"],"statusColor":"Y"}],"3870":[{"sid":"55879","pid":335,"pkey":"vista_common_food","cid":3870,"mid":"OB104Y","fid":"O0GvByvMx","showTime":"2024-09-02T14:40","closeTime":"2024-09-02T14:39","mandatoryItems":[],"areas":[{"code":"0000000002","label":"EXECUTIVE","typeCode":"0001","sType":"fixed","sAvail":82,"sTotal":97,"price":200.0,"statusColor":"G"},{"code":"0000000000","label":"NORMAL","typeCode":"0002","sType":"fixed","sAvail":25,"sTotal":25,"price":200.0,"statusColor":"G"}],"total":122,"avail":107,"audi":"AUDI 4","premium":0,"premiumLabel":"DOLBY 7.1","tFeePkupTime":0,"sType":0,"tFee":0,"grpSeats":0,"maxTkt":6,"lang":"Telugu","scrnFmt":"2D","gnrs":["Drama"],"statusColor":"G","subtitle":""},{"sid":"55832","pid":335,"pkey":"vista_common_food","cid":3870,"mid":"OB104Y","fid":"O0GvByvMx","showTime":"2024-09-02T05:30","closeTime":"2024-09-02T05:29","mandatoryItems":[],"areas":[{"code":"0000000002","label":"EXECUTIVE","typeCode":"0001","sType":"fixed","sAvail":84,"sTotal":97,"price":200.0,"statusColor":"G"},{"code":"0000000000","label":"NORMAL","typeCode":"0002","sType":"fixed","sAvail":25,"sTotal":25,"price":200.0,"statusColor":"G"}],"total":122,"avail":109,"audi":"AUDI 4","premium":0,"premiumLabel":"DOLBY 7.1","tFeePkupTime":0,"sType":0,"tFee":0,"grpSeats":0,"maxTkt":6,"lang":"Telugu","scrnFmt":"2D","gnrs":["Drama"],"statusColor":"G","subtitle":""}],"1021166":[{"sid":"3110","pid":55,"pkey":"mt","cid":1021166,"mid":"OB104Y","fid":"O0GvByvMx","showTime":"2024-09-02T10:30","closeTime":"2024-09-02T10:29","mandatoryItems":[],"areas":[{"code":"0000000002","label":"RECLINER","typeCode":"0001","sType":"fixed","sAvail":33,"sTotal":33,"price":300.0,"statusColor":"G"},{"code":"0000000004","label":"GOLD","typeCode":"0003","sType":"fixed","sAvail":106,"sTotal":108,"price":200.0,"statusColor":"G"},{"code":"0000000005","label":"SILVER","typeCode":"0004","sType":"fixed","sAvail":72,"sTotal":72,"price":200.0,"statusColor":"G"}],"total":213,"avail":211,"audi":"SCREEN 3","premium":0,"premiumLabel":"LASER DOLBY 7.1","tFeePkupTime":0,"sType":0,"tFee":0,"grpSeats":0,"maxTkt":6,"lang":"Telugu","scrnFmt":"2D","gnrs":["Drama"],"statusColor":"G","subtitle":""},{"sid":"3108","pid":55,"pkey":"mt","cid":1021166,"mid":"OB104Y","fid":"O0GvByvMx","showTime":"2024-09-02T04:30","closeTime":"2024-09-02T04:29","mandatoryItems":[],"areas":[{"code":"0000000002","label":"RECLINER","typeCode":"0001","sType":"fixed","sAvail":33,"sTotal":33,"price":300.0,"statusColor":"G"},{"code":"0000000004","label":"GOLD","typeCode":"0003","sType":"fixed","sAvail":108,"sTotal":108,"price":200.0,"statusColor":"G"},{"code":"0000000005","label":"SILVER","typeCode":"0004","sType":"fixed","sAvail":72,"sTotal":72,"price":200.0,"statusColor":"G"}],"total":213,"avail":213,"audi":"SCREEN 3","premium":0,"premiumLabel":"LASER DOLBY 7.1","tFeePkupTime":0,"sType":0,"tFee":0,"grpSeats":0,"maxTkt":6,"lang":"Telugu","scrnFmt":"2D","gnrs":["Drama"],"statusColor":"G","subtitle":""},{"sid":"3109","pid":55,"pkey":"mt","cid":1021166,"mid":"OB104Y","fid":"O0GvByvMx","showTime":"2024-09-02T07:30","closeTime":"2024-09-02T07:29","mandatoryItems":[],"areas":[{"code":"0000000002","label":"RECLINER","typeCode":"0001","sType":"fixed","sAvail":33,"sTotal":33,"price":300.0,"statusColor":"G"},{"code":"0000000004","label":"GOLD","typeCode":"0003","sType":"fixed","sAvail":108,"sTotal":108,"price":200.0,"statusColor":"G"},{"code":"0000000005","label":"SILVER","typeCode":"0004","sType":"fixed","sAvail":72,"sTotal":72,"price":200.0,"statusColor":"G"}],"total":213,"avail":213,"audi":"SCREEN 3","premium":0,"premiumLabel":"LASER DOLBY 7.1","tFeePkupTime":0,"sType":0,"tFee":0,"grpSeats":0,"maxTkt":6,"lang":"Telugu","scrnFmt":"2D","gnrs":["Drama"],"statusColor":"G","subtitle":""}],"1020782":[{"sid":"14397","pid":1707,"pkey":"showbizz","cid":1020782,"mid":"OB104Y","fid":"O0GvByvMx","showTime":"2024-09-02T17:30","closeTime":"2024-09-02T17:29","mandatoryItems":[],"areas":[{"code":"EX","label":"EXECUTIVE","typeCode":"14397_EX","sType":"fixed","sAvail":282,"sTotal":283,"price":200.0,"statusColor":"G"},{"code":"RY","label":"ROYALE","typeCode":"14397_RY","sType":"fixed","sAvail":9,"sTotal":9,"price":300.0,"statusColor":"G"}],"total":292,"avail":291,"audi":"SCREEN 4","premium":0,"tFeePkupTime":0,"sType":0,"tFee":0,"grpSeats":0,"maxTkt":6,"lang":"Telugu","scrnFmt":"2D","gnrs":["Drama"],"statusColor":"G"},{"sid":"14385","pid":1707,"pkey":"showbizz","cid":1020782,"mid":"OB104Y","fid":"O0GvByvMx","showTime":"2024-09-02T13:05","closeTime":"2024-09-02T13:04","mandatoryItems":[],"areas":[{"code":"EX","label":"EXECUTIVE","typeCode":"14385_EX","sType":"fixed","sAvail":117,"sTotal":170,"price":200.0,"statusColor":"G"},{"code":"RY","label":"ROYALE","typeCode":"14385_RY","sType":"fixed","sAvail":4,"sTotal":9,"price":300.0,"statusColor":"G"}],"total":179,"avail":121,"audi":"SCREEN 2","premium":0,"tFeePkupTime":0,"sType":0,"tFee":0,"grpSeats":0,"maxTkt":6,"lang":"Telugu","scrnFmt":"2D","gnrs":["Drama"],"statusColor":"G"},{"sid":"14386","pid":1707,"pkey":"showbizz","cid":1020782,"mid":"OB104Y","fid":"O0GvByvMx","showTime":"2024-09-02T16:20","closeTime":"2024-09-02T16:19","mandatoryItems":[],"areas":[{"code":"EX","label":"EXECUTIVE","typeCode":"14386_EX","sType":"fixed","sAvail":161,"sTotal":170,"price":200.0,"statusColor":"G"},{"code":"RY","label":"ROYALE","typeCode":"14386_RY","sType":"fixed","sAvail":9,"sTotal":9,"price":300.0,"statusColor":"G"}],"total":179,"avail":170,"audi":"SCREEN 2","premium":0,"tFeePkupTime":0,"sType":0,"tFee":0,"grpSeats":0,"maxTkt":6,"lang":"Telugu","scrnFmt":"2D","gnrs":["Drama"],"statusColor":"G"},{"sid":"14383","pid":1707,"pkey":"showbizz","cid":1020782,"mid":"OB104Y","fid":"O0GvByvMx","showTime":"2024-09-02T06:45","closeTime":"2024-09-02T06:44","mandatoryItems":[],"areas":[{"code":"EX","label":"EXECUTIVE","typeCode":"14383_EX","sType":"fixed","sAvail":157,"sTotal":170,"price":200.0,"statusColor":"G"},{"code":"RY","label":"ROYALE","typeCode":"14383_RY","sType":"fixed","sAvail":5,"sTotal":9,"price":300.0,"statusColor":"G"}],"total":179,"avail":162,"audi":"SCREEN 2","premium":0,"tFeePkupTime":0,"sType":0,"tFee":0,"grpSeats":0,"maxTkt":6,"lang":"Telugu","scrnFmt":"2D","gnrs":["Drama"],"statusColor":"G"}],"1020781":[{"sid":"30436","pid":1707,"pkey":"showbizz","cid":1020781,"mid":"OB104Y","fid":"O0GvByvMx","showTime":"2024-09-02T17:20","closeTime":"2024-09-02T17:19","mandatoryItems":[],"areas":[{"code":"EX","label":"Executive","typeCode":"30436_EX","sType":"fixed","sAvail":190,"sTotal":203,"price":200.0,"statusColor":"G"},{"code":"RY","label":"Royal","typeCode":"30436_RY","sType":"fixed","sAvail":11,"sTotal":11,"price":300.0,"statusColor":"G"}],"total":214,"avail":201,"audi":"Screen 1","premium":0,"tFeePkupTime":0,"sType":0,"tFee":0,"grpSeats":0,"maxTkt":6,"lang":"Telugu","scrnFmt":"2D","gnrs":["Drama"],"statusColor":"G"},{"sid":"30458","pid":1707,"pkey":"showbizz","cid":1020781,"mid":"OB104Y","fid":"O0GvByvMx","showTime":"2024-09-02T05:00","closeTime":"2024-09-02T04:59","mandatoryItems":[],"areas":[{"code":"EX","label":"Executive","typeCode":"30458_EX","sType":"fixed","sAvail":112,"sTotal":122,"price":200.0,"statusColor":"G"},{"code":"RY","label":"Royal","typeCode":"30458_RY","sType":"fixed","sAvail":10,"sTotal":10,"price":300.0,"statusColor":"G"}],"total":132,"avail":122,"audi":"Screen 7","premium":0,"tFeePkupTime":0,"sType":0,"tFee":0,"grpSeats":0,"maxTkt":6,"lang":"Telugu","scrnFmt":"2D","gnrs":["Drama"],"statusColor":"G"},{"sid":"30456","pid":1707,"pkey":"showbizz","cid":1020781,"mid":"OB104Y","fid":"O0GvByvMx","showTime":"2024-09-02T14:05","closeTime":"2024-09-02T14:04","mandatoryItems":[],"areas":[{"code":"EX","label":"Executive","typeCode":"30456_EX","sType":"fixed","sAvail":143,"sTotal":144,"price":200.0,"statusColor":"G"},{"code":"RY","label":"Royal","typeCode":"30456_RY","sType":"fixed","sAvail":12,"sTotal":12,"price":300.0,"statusColor":"G"}],"total":156,"avail":155,"audi":"Screen 6","premium":0,"tFeePkupTime":0,"sType":0,"tFee":0,"grpSeats":0,"maxTkt":6,"lang":"Telugu","scrnFmt":"2D","gnrs":["Drama"],"statusColor":"G"}],"9123":[{"sid":"50461","pid":335,"pkey":"vista_common_food","cid":9123,"mid":"OB104Y","fid":"O0GvByvMx","showTime":"2024-09-02T17:30","closeTime":"2024-09-02T17:25","mandatoryItems":[],"areas":[{"code":"0000000000","label":"NORMAL","typeCode":"0002","sType":"fixed","sAvail":35,"sTotal":35,"price":200.0,"statusColor":"G"},{"code":"0000000002","label":"EXECUTIVE","typeCode":"0001","sType":"fixed","sAvail":145,"sTotal":150,"price":200.0,"statusColor":"G"},{"code":"0000000003","label":"VIP","typeCode":"0004","sType":"fixed","sAvail":14,"sTotal":14,"price":300.0,"statusColor":"G"}],"total":199,"avail":194,"audi":"AUDI 1","premium":0,"premiumLabel":"DOLBY 7.1","tFeePkupTime":0,"sType":0,"tFee":0,"grpSeats":0,"maxTkt":6,"lang":"Telugu","scrnFmt":"2D","gnrs":["Drama"],"statusColor":"G","subtitle":""},{"sid":"50462","pid":335,"pkey":"vista_common_food","cid":9123,"mid":"OB104Y","fid":"O0GvByvMx","showTime":"2024-09-02T08:20","closeTime":"2024-09-02T08:15","mandatoryItems":[],"areas":[{"code":"0000000000","label":"NORMAL","typeCode":"0002","sType":"fixed","sAvail":35,"sTotal":35,"price":200.0,"statusColor":"G"},{"code":"0000000002","label":"EXECUTIVE","typeCode":"0001","sType":"fixed","sAvail":142,"sTotal":150,"price":200.0,"statusColor":"G"},{"code":"0000000003","label":"VIP","typeCode":"0004","sType":"fixed","sAvail":14,"sTotal":14,"price":300.0,"statusColor":"G"}],"total":199,"avail":191,"audi":"AUDI 1","premium":0,"premiumLabel":"DOLBY 7.1","tFeePkupTime":0,"sType":0,"tFee":0,"grpSeats":0,"maxTkt":6,"lang":"Telugu","scrnFmt":"2D","gnrs":["Drama"],"statusColor":"G","subtitle":""},{"sid":"50432","pid":335,"pkey":"vista_common_food","cid":9123,"mid":"OB104Y","fid":"O0GvByvMx","showTime":"2024-09-02T04:30","closeTime":"2024-09-02T04:25","mandatoryItems":[],"areas":[{"code":"0000000000","label":"NORMAL","typeCode":"0002","sType":"fixed","sAvail":35,"sTotal":35,"price":200.0,"statusColor":"G"},{"code":"0000000002","label":"EXECUTIVE","typeCode":"0001","sType":"fixed","sAvail":160,"sTotal":186,"price":200.0,"statusColor":"G"},{"code":"0000000003","label":"VIP","typeCode":"0004","sType":"fixed","sAvail":7,"sTotal":14,"price":300.0,"statusColor":"G"}],"total":235,"avail":202,"audi":"AUDI 3","premium":0,"premiumLabel":"DOLBY 7.1","tFeePkupTime":0,"sType":0,"tFee":0,"grpSeats":0,"maxTkt":6,"lang":"Telugu","scrnFmt":"2D","gnrs":["Drama"],"statusColor":"G","subtitle":""},{"sid":"50454","pid":335,"pkey":"vista_common_food","cid":9123,"mid":"OB104Y","fid":"O0GvByvMx","showTime":"2024-09-02T14:20","closeTime":"2024-09-02T14:15","mandatoryItems":[],"areas":[{"code":"0000000000","label":"NORMAL","typeCode":"0002","sType":"fixed","sAvail":35,"sTotal":35,"price":200.0,"statusColor":"G"},{"code":"0000000002","label":"EXECUTIVE","typeCode":"0001","sType":"fixed","sAvail":150,"sTotal":150,"price":200.0,"statusColor":"G"},{"code":"0000000003","label":"VIP","typeCode":"0004","sType":"fixed","sAvail":14,"sTotal":14,"price":300.0,"statusColor":"G"}],"total":199,"avail":199,"audi":"AUDI 1","premium":0,"premiumLabel":"DOLBY 7.1","tFeePkupTime":0,"sType":0,"tFee":0,"grpSeats":0,"maxTkt":6,"lang":"Telugu","scrnFmt":"2D","gnrs":["Drama"],"statusColor":"G","subtitle":""}],"1018796":[{"sid":"23037__1725242400__2582__11163","pid":750,"pkey":"ticketnew","cid":1018796,"mid":"OB104Y","fid":"O0GvByvMx","showTime":"2024-09-02T02:00","closeTime":"2024-09-02T01:55","mandatoryItems":[],"areas":[{"code":"10","label":"GOLD","typeCode":"23037__1725242400__2582__11163_GOLD","sType":"fixed","sAvail":0,"sTotal":432,"price":150.0,"statusColor":"D"},{"code":"20","label":"SILVER","typeCode":"23037__1725242400__2582__11163_SILVER","sType":"fixed","sAvail":0,"sTotal":226,"price":100.0,"statusColor":"D"},{"code":"30","label":"BRONZE","typeCode":"23037__1725242400__2582__11163_BRONZE","sType":"fixed","sAvail":0,"sTotal":184,"price":50.0,"statusColor":"D"}],"total":842,"avail":0,"audi":"SVC Eeshwar ","lang":"Telugu","scrnFmt":"2D","gnrs":["Drama"],"statusColor":"D","subtitle":""}],"1020780":[{"sid":"56590","pid":1707,"pkey":"showbizz","cid":1020780,"mid":"OB104Y","fid":"O0GvByvMx","showTime":"2024-09-02T16:30","closeTime":"2024-09-02T16:29","mandatoryItems":[],"areas":[{"code":"EX","label":"EXECUTIVE","typeCode":"56590_EX","sType":"fixed","sAvail":113,"sTotal":130,"price":200.0,"statusColor":"G"},{"code":"RY","label":"ROYAL","typeCode":"56590_RY","sType":"fixed","sAvail":6,"sTotal":8,"price":300.0,"statusColor":"G"}],"total":138,"avail":119,"audi":"SCREEN 5","premium":0,"tFeePkupTime":0,"sType":0,"tFee":0,"grpSeats":0,"maxTkt":6,"lang":"Telugu","scrnFmt":"2D","gnrs":["Drama"],"statusColor":"G"},{"sid":"56588","pid":1707,"pkey":"showbizz","cid":1020780,"mid":"OB104Y","fid":"O0GvByvMx","showTime":"2024-09-02T10:00","closeTime":"2024-09-02T09:59","mandatoryItems":[],"areas":[{"code":"EX","label":"EXECUTIVE","typeCode":"56588_EX","sType":"fixed","sAvail":119,"sTotal":130,"price":200.0,"statusColor":"G"},{"code":"RY","label":"ROYAL","typeCode":"56588_RY","sType":"fixed","sAvail":8,"sTotal":8,"price":300.0,"statusColor":"G"}],"total":138,"avail":127,"audi":"SCREEN 5","premium":0,"tFeePkupTime":0,"sType":0,"tFee":0,"grpSeats":0,"maxTkt":6,"lang":"Telugu","scrnFmt":"2D","gnrs":["Drama"],"statusColor":"G"},{"sid":"56586","pid":1707,"pkey":"showbizz","cid":1020780,"mid":"OB104Y","fid":"O0GvByvMx","showTime":"2024-09-02T04:30","closeTime":"2024-09-02T04:29","mandatoryItems":[],"areas":[{"code":"EX","label":"EXECUTIVE","typeCode":"56586_EX","sType":"fixed","sAvail":118,"sTotal":130,"price":200.0,"statusColor":"G"},{"code":"RY","label":"ROYAL","typeCode":"56586_RY","sType":"fixed","sAvail":8,"sTotal":8,"price":300.0,"statusColor":"G"}],"total":138,"avail":126,"audi":"SCREEN 5","premium":0,"tFeePkupTime":0,"sType":0,"tFee":0,"grpSeats":0,"maxTkt":6,"lang":"Telugu","scrnFmt":"2D","gnrs":["Drama"],"statusColor":"G"},{"sid":"56589","pid":1707,"pkey":"showbizz","cid":1020780,"mid":"OB104Y","fid":"O0GvByvMx","showTime":"2024-09-02T13:15","closeTime":"2024-09-02T13:14","mandatoryItems":[],"areas":[{"code":"EX","label":"EXECUTIVE","typeCode":"56589_EX","sType":"fixed","sAvail":87,"sTotal":130,"price":200.0,"statusColor":"G"},{"code":"RY","label":"ROYAL","typeCode":"56589_RY","sType":"fixed","sAvail":3,"sTotal":8,"price":300.0,"statusColor":"Y"}],"total":138,"avail":90,"audi":"SCREEN 5","premium":0,"tFeePkupTime":0,"sType":0,"tFee":0,"grpSeats":0,"maxTkt":6,"lang":"Telugu","scrnFmt":"2D","gnrs":["Drama"],"statusColor":"G"},{"sid":"56541","pid":1707,"pkey":"showbizz","cid":1020780,"mid":"OB104Y","fid":"O0GvByvMx","showTime":"2024-09-02T17:20","closeTime":"2024-09-02T17:19","mandatoryItems":[],"areas":[{"code":"EX","label":"EXECUTIVE","typeCode":"56541_EX","sType":"fixed","sAvail":175,"sTotal":184,"price":200.0,"statusColor":"G"},{"code":"RY","label":"ROYAL","typeCode":"56541_RY","sType":"fixed","sAvail":9,"sTotal":9,"price":300.0,"statusColor":"G"}],"total":193,"avail":184,"audi":"SCREEN 8","premium":0,"tFeePkupTime":0,"sType":0,"tFee":0,"grpSeats":0,"maxTkt":6,"lang":"Telugu","scrnFmt":"2D","gnrs":["Drama"],"statusColor":"G"}],"1022251":[{"sid":"4753","pid":1707,"pkey":"showbizz","cid":1022251,"mid":"OB104Y","fid":"O0GvByvMx","showTime":"2024-09-02T17:10","closeTime":"2024-09-02T17:09","mandatoryItems":[],"areas":[{"code":"CC","label":"CLASSIC","typeCode":"4753_CC","sType":"fixed","sAvail":234,"sTotal":236,"price":200.0,"statusColor":"G"}],"total":236,"avail":234,"audi":"AUDI 1","premium":0,"tFeePkupTime":0,"sType":0,"tFee":0,"grpSeats":0,"maxTkt":6,"lang":"Telugu","scrnFmt":"2D","gnrs":["Drama"],"statusColor":"G"}],"1020777":[{"sid":"92749","pid":1707,"pkey":"showbizz","cid":1020777,"mid":"OB104Y","fid":"O0GvByvMx","showTime":"2024-09-02T17:20","closeTime":"2024-09-02T17:19","mandatoryItems":[],"areas":[{"code":"EX","label":"Executive","typeCode":"92749_EX","sType":"fixed","sAvail":225,"sTotal":228,"price":200.0,"statusColor":"G"}],"total":228,"avail":225,"audi":"Screen 5","premium":0,"tFeePkupTime":0,"sType":0,"tFee":0,"grpSeats":0,"maxTkt":6,"lang":"Telugu","scrnFmt":"2D","gnrs":["Drama"],"statusColor":"G"}],"1020776":[{"sid":"112251","pid":1707,"pkey":"showbizz","cid":1020776,"mid":"OB104Y","fid":"O0GvByvMx","showTime":"2024-09-02T14:05","closeTime":"2024-09-02T14:04","mandatoryItems":[],"areas":[{"code":"EX","label":"Executive","typeCode":"112251_EX","sType":"fixed","sAvail":153,"sTotal":180,"price":200.0,"statusColor":"G"},{"code":"RY","label":"Royal","typeCode":"112251_RY","sType":"fixed","sAvail":5,"sTotal":5,"price":300.0,"statusColor":"G"}],"total":185,"avail":158,"audi":"Screen 5","premium":0,"tFeePkupTime":0,"sType":0,"tFee":0,"grpSeats":0,"maxTkt":6,"lang":"Telugu","scrnFmt":"2D","gnrs":["Drama"],"statusColor":"G"},{"sid":"112252","pid":1707,"pkey":"showbizz","cid":1020776,"mid":"OB104Y","fid":"O0GvByvMx","showTime":"2024-09-02T17:20","closeTime":"2024-09-02T17:19","mandatoryItems":[],"areas":[{"code":"EX","label":"Executive","typeCode":"112252_EX","sType":"fixed","sAvail":163,"sTotal":180,"price":200.0,"statusColor":"G"},{"code":"RY","label":"Royal","typeCode":"112252_RY","sType":"fixed","sAvail":5,"sTotal":5,"price":300.0,"statusColor":"G"}],"total":185,"avail":168,"audi":"Screen 5","premium":0,"tFeePkupTime":0,"sType":0,"tFee":0,"grpSeats":0,"maxTkt":6,"lang":"Telugu","scrnFmt":"2D","gnrs":["Drama"],"statusColor":"G"}],"1021025":[{"sid":"8464","pid":1780,"pkey":"vista_common_food","cid":1021025,"mid":"OB104Y","fid":"O0GvByvMx","showTime":"2024-09-02T10:45","closeTime":"2024-09-02T10:15","mandatoryItems":[],"areas":[{"code":"0000000002","label":"RECLINER","typeCode":"0001","sType":"fixed","sAvail":9,"sTotal":18,"price":250.0,"statusColor":"G"},{"code":"0000000004","label":"GOLD","typeCode":"0003","sType":"fixed","sAvail":220,"sTotal":262,"price":200.0,"statusColor":"G"}],"total":280,"avail":229,"audi":"SCREEN 2","premium":0,"premiumLabel":"DOLBY ATMOS","tFeePkupTime":0,"sType":0,"tFee":0,"grpSeats":0,"maxTkt":6,"lang":"Telugu","scrnFmt":"2D","gnrs":["Drama"],"statusColor":"G","subtitle":""},{"sid":"8465","pid":1780,"pkey":"vista_common_food","cid":1021025,"mid":"OB104Y","fid":"O0GvByvMx","showTime":"2024-09-02T14:15","closeTime":"2024-09-02T13:45","mandatoryItems":[],"areas":[{"code":"0000000002","label":"RECLINER","typeCode":"0001","sType":"fixed","sAvail":0,"sTotal":23,"price":250.0,"statusColor":"D"},{"code":"0000000004","label":"GOLD","typeCode":"0003","sType":"fixed","sAvail":120,"sTotal":230,"price":200.0,"statusColor":"G"}],"total":253,"avail":120,"audi":"SCREEN 1","premium":0,"premiumLabel":"DOLBY ATMOS","tFeePkupTime":0,"sType":0,"tFee":0,"grpSeats":0,"maxTkt":6,"lang":"Telugu","scrnFmt":"2D","gnrs":["Drama"],"statusColor":"G","subtitle":""},{"sid":"8466","pid":1780,"pkey":"vista_common_food","cid":1021025,"mid":"OB104Y","fid":"O0GvByvMx","showTime":"2024-09-02T17:15","closeTime":"2024-09-02T16:45","mandatoryItems":[],"areas":[{"code":"0000000002","label":"RECLINER","typeCode":"0001","sType":"fixed","sAvail":14,"sTotal":23,"price":250.0,"statusColor":"G"},{"code":"0000000004","label":"GOLD","typeCode":"0003","sType":"fixed","sAvail":191,"sTotal":230,"price":200.0,"statusColor":"G"}],"total":253,"avail":205,"audi":"SCREEN 1","premium":0,"premiumLabel":"DOLBY ATMOS","tFeePkupTime":0,"sType":0,"tFee":0,"grpSeats":0,"maxTkt":6,"lang":"Telugu","scrnFmt":"2D","gnrs":["Drama"],"statusColor":"G","subtitle":""},{"sid":"8467","pid":1780,"pkey":"vista_common_food","cid":1021025,"mid":"OB104Y","fid":"O0GvByvMx","showTime":"2024-09-02T07:45","closeTime":"2024-09-02T07:15","mandatoryItems":[],"areas":[{"code":"0000000002","label":"RECLINER","typeCode":"0001","sType":"fixed","sAvail":6,"sTotal":18,"price":250.0,"statusColor":"Y"},{"code":"0000000004","label":"GOLD","typeCode":"0003","sType":"fixed","sAvail":243,"sTotal":262,"price":200.0,"statusColor":"G"}],"total":280,"avail":249,"audi":"SCREEN 2","premium":0,"premiumLabel":"DOLBY ATMOS","tFeePkupTime":0,"sType":0,"tFee":0,"grpSeats":0,"maxTkt":6,"lang":"Telugu","scrnFmt":"2D","gnrs":["Drama"],"statusColor":"G","subtitle":""},{"sid":"8475","pid":1780,"pkey":"vista_common_food","cid":1021025,"mid":"OB104Y","fid":"O0GvByvMx","showTime":"2024-09-02T04:30","closeTime":"2024-09-02T04:00","mandatoryItems":[],"areas":[{"code":"0000000002","label":"RECLINER","typeCode":"0001","sType":"fixed","sAvail":2,"sTotal":23,"price":250.0,"statusColor":"R"},{"code":"0000000004","label":"GOLD","typeCode":"0003","sType":"fixed","sAvail":198,"sTotal":230,"price":200.0,"statusColor":"G"}],"total":253,"avail":200,"audi":"SCREEN 1","premium":0,"premiumLabel":"DOLBY ATMOS","tFeePkupTime":0,"sType":0,"tFee":0,"grpSeats":0,"maxTkt":6,"lang":"Telugu","scrnFmt":"2D","gnrs":["Drama"],"statusColor":"G","subtitle":""},{"sid":"8408","pid":1780,"pkey":"vista_common_food","cid":1021025,"mid":"OB104Y","fid":"O0GvByvMx","showTime":"2024-09-02T04:45","closeTime":"2024-09-02T04:15","mandatoryItems":[],"areas":[{"code":"0000000002","label":"RECLINER","typeCode":"0001","sType":"fixed","sAvail":0,"sTotal":18,"price":250.0,"statusColor":"D"},{"code":"0000000004","label":"GOLD","typeCode":"0003","sType":"fixed","sAvail":46,"sTotal":262,"price":200.0,"statusColor":"Y"}],"total":280,"avail":46,"audi":"SCREEN 2","premium":0,"premiumLabel":"DOLBY ATMOS","tFeePkupTime":0,"sType":0,"tFee":0,"grpSeats":0,"maxTkt":6,"lang":"Telugu","scrnFmt":"2D","gnrs":["Drama"],"statusColor":"Y","subtitle":""}],"38575":[{"sid":"17093","pid":55,"pkey":"mt","cid":38575,"mid":"OB104Y","fid":"O0GvByvMx","showTime":"2024-09-02T04:30","closeTime":"2024-09-02T04:29","mandatoryItems":[],"areas":[{"code":"0000000002","label":"PLATINUM","typeCode":"0001","sType":"fixed","sAvail":209,"sTotal":216,"price":200.0,"statusColor":"G"},{"code":"0000000005","label":"LOUNGE","typeCode":"0007","sType":"fixed","sAvail":10,"sTotal":10,"price":200.0,"statusColor":"G"},{"code":"0000000004","label":"SILVER","typeCode":"0003","sType":"fixed","sAvail":80,"sTotal":80,"price":200.0,"statusColor":"G"}],"total":306,"avail":299,"audi":"SCREEN 1","premium":0,"premiumLabel":"DOLBY 7.1","tFeePkupTime":0,"sType":0,"tFee":0,"grpSeats":0,"maxTkt":6,"lang":"Telugu","scrnFmt":"2D","gnrs":["Drama"],"statusColor":"G","subtitle":""},{"sid":"17095","pid":55,"pkey":"mt","cid":38575,"mid":"OB104Y","fid":"O0GvByvMx","showTime":"2024-09-02T07:30","closeTime":"2024-09-02T07:29","mandatoryItems":[],"areas":[{"code":"0000000002","label":"PLATINUM","typeCode":"0001","sType":"fixed","sAvail":212,"sTotal":216,"price":200.0,"statusColor":"G"},{"code":"0000000005","label":"LOUNGE","typeCode":"0007","sType":"fixed","sAvail":10,"sTotal":10,"price":200.0,"statusColor":"G"},{"code":"0000000004","label":"SILVER","typeCode":"0003","sType":"fixed","sAvail":80,"sTotal":80,"price":200.0,"statusColor":"G"}],"total":306,"avail":302,"audi":"SCREEN 1","premium":0,"premiumLabel":"DOLBY 7.1","tFeePkupTime":0,"sType":0,"tFee":0,"grpSeats":0,"maxTkt":6,"lang":"Telugu","scrnFmt":"2D","gnrs":["Drama"],"statusColor":"G","subtitle":""},{"sid":"17096","pid":55,"pkey":"mt","cid":38575,"mid":"OB104Y","fid":"O0GvByvMx","showTime":"2024-09-02T10:30","closeTime":"2024-09-02T10:29","mandatoryItems":[],"areas":[{"code":"0000000002","label":"PLATINUM","typeCode":"0001","sType":"fixed","sAvail":210,"sTotal":216,"price":200.0,"statusColor":"G"},{"code":"0000000005","label":"LOUNGE","typeCode":"0007","sType":"fixed","sAvail":10,"sTotal":10,"price":200.0,"statusColor":"G"},{"code":"0000000004","label":"SILVER","typeCode":"0003","sType":"fixed","sAvail":80,"sTotal":80,"price":200.0,"statusColor":"G"}],"total":306,"avail":300,"audi":"SCREEN 1","premium":0,"premiumLabel":"DOLBY 7.1","tFeePkupTime":0,"sType":0,"tFee":0,"grpSeats":0,"maxTkt":6,"lang":"Telugu","scrnFmt":"2D","gnrs":["Drama"],"statusColor":"G","subtitle":""}],"56048":[{"sid":"23037__1725242400__5439__3920","pid":750,"pkey":"ticketnew","cid":56048,"mid":"OB104Y","fid":"O0GvByvMx","showTime":"2024-09-02T02:00","closeTime":"2024-09-02T01:55","mandatoryItems":[],"areas":[{"code":"10","label":"UPPER BALCONY","typeCode":"23037__1725242400__5439__3920_UPPER BALCONY","sType":"fixed","sAvail":34,"sTotal":64,"price":150.0,"statusColor":"G"},{"code":"20","label":"LOWER BALCONY","typeCode":"23037__1725242400__5439__3920_LOWER BALCONY","sType":"fixed","sAvail":198,"sTotal":230,"price":150.0,"statusColor":"G"},{"code":"21","label":"FIRST CLASS","typeCode":"23037__1725242400__5439__3920_FIRST CLASS","sType":"fixed","sAvail":19,"sTotal":26,"price":100.0,"statusColor":"G"},{"code":"22","label":"SECOND CLASS","typeCode":"23037__1725242400__5439__3920_SECOND CLASS","sType":"fixed","sAvail":43,"sTotal":82,"price":50.0,"statusColor":"G"}],"total":402,"avail":294,"audi":"SVC SHIVA SHAKTHI A/C DTS","premium":0,"tFeePkupTime":0,"sType":0,"tFee":0,"grpSeats":0,"maxTkt":6,"lang":"Telugu","scrnFmt":"2D","gnrs":["Drama"],"statusColor":"G","subtitle":""}],"52274":[{"sid":"26462","pid":1513,"pkey":"vista_common_food","cid":52274,"mid":"OB104Y","fid":"O0GvByvMx","showTime":"2024-09-02T04:30","closeTime":"2024-09-02T04:29","mandatoryItems":[],"areas":[{"code":"0000000008","label":"RECLINER","typeCode":"0004","sType":"fixed","sAvail":10,"sTotal":12,"price":300.0,"statusColor":"G"},{"code":"0000000005","label":"PRIME","typeCode":"0001","sType":"fixed","sAvail":163,"sTotal":196,"price":200.0,"statusColor":"G"},{"code":"0000000006","label":"CLASSIC","typeCode":"0002","sType":"fixed","sAvail":34,"sTotal":34,"price":180.0,"statusColor":"G"}],"total":242,"avail":207,"audi":"SCREEN3","premium":0,"premiumLabel":"ATMOS","tFeePkupTime":0,"sType":0,"tFee":0,"grpSeats":0,"maxTkt":6,"lang":"Telugu","scrnFmt":"2D","gnrs":["Drama"],"statusColor":"G","subtitle":""},{"sid":"26464","pid":1513,"pkey":"vista_common_food","cid":52274,"mid":"OB104Y","fid":"O0GvByvMx","showTime":"2024-09-02T10:30","closeTime":"2024-09-02T10:29","mandatoryItems":[],"areas":[{"code":"0000000008","label":"RECLINER","typeCode":"0004","sType":"fixed","sAvail":10,"sTotal":12,"price":300.0,"statusColor":"G"},{"code":"0000000005","label":"PRIME","typeCode":"0001","sType":"fixed","sAvail":162,"sTotal":196,"price":200.0,"statusColor":"G"},{"code":"0000000006","label":"CLASSIC","typeCode":"0002","sType":"fixed","sAvail":34,"sTotal":34,"price":180.0,"statusColor":"G"}],"total":242,"avail":206,"audi":"SCREEN3","premium":0,"premiumLabel":"ATMOS","tFeePkupTime":0,"sType":0,"tFee":0,"grpSeats":0,"maxTkt":6,"lang":"Telugu","scrnFmt":"2D","gnrs":["Drama"],"statusColor":"G","subtitle":""},{"sid":"26508","pid":1513,"pkey":"vista_common_food","cid":52274,"mid":"OB104Y","fid":"O0GvByvMx","showTime":"2024-09-02T07:30","closeTime":"2024-09-02T07:29","mandatoryItems":[],"areas":[{"code":"0000000008","label":"RECLINER","typeCode":"0004","sType":"fixed","sAvail":12,"sTotal":12,"price":300.0,"statusColor":"G"},{"code":"0000000005","label":"PRIME","typeCode":"0001","sType":"fixed","sAvail":177,"sTotal":196,"price":200.0,"statusColor":"G"},{"code":"0000000006","label":"CLASSIC","typeCode":"0002","sType":"fixed","sAvail":34,"sTotal":34,"price":180.0,"statusColor":"G"}],"total":242,"avail":223,"audi":"SCREEN3","premium":0,"premiumLabel":"ATMOS","tFeePkupTime":0,"sType":0,"tFee":0,"grpSeats":0,"maxTkt":6,"lang":"Telugu","scrnFmt":"2D","gnrs":["Drama"],"statusColor":"G","subtitle":""}],"1022267":[{"sid":"9443","pid":1707,"pkey":"showbizz","cid":1022267,"mid":"OB104Y","fid":"O0GvByvMx","showTime":"2024-09-02T04:25","closeTime":"2024-09-02T04:24","mandatoryItems":[],"areas":[{"code":"CC","label":"CLASSIC","typeCode":"9443_CC","sType":"fixed","sAvail":122,"sTotal":188,"price":200.0,"statusColor":"G"},{"code":"RY","label":"RECLINER","typeCode":"9443_RY","sType":"fixed","sAvail":1,"sTotal":12,"price":300.0,"statusColor":"R"}],"total":200,"avail":123,"audi":"AUDI 01","premium":0,"tFeePkupTime":0,"sType":0,"tFee":0,"grpSeats":0,"maxTkt":6,"lang":"Telugu","scrnFmt":"2D","gnrs":["Drama"],"statusColor":"G"},{"sid":"9444","pid":1707,"pkey":"showbizz","cid":1022267,"mid":"OB104Y","fid":"O0GvByvMx","showTime":"2024-09-02T17:30","closeTime":"2024-09-02T17:29","mandatoryItems":[],"areas":[{"code":"CC","label":"CLASSIC","typeCode":"9444_CC","sType":"fixed","sAvail":173,"sTotal":188,"price":200.0,"statusColor":"G"},{"code":"RY","label":"RECLINER","typeCode":"9444_RY","sType":"fixed","sAvail":10,"sTotal":12,"price":300.0,"statusColor":"G"}],"total":200,"avail":183,"audi":"AUDI 01","premium":0,"tFeePkupTime":0,"sType":0,"tFee":0,"grpSeats":0,"maxTkt":6,"lang":"Telugu","scrnFmt":"2D","gnrs":["Drama"],"statusColor":"G"}],"7543":[{"sid":"23037__1725242400__1113__3047","pid":981,"pkey":"ticketnew","cid":7543,"mid":"OB104Y","fid":"O0GvByvMx","showTime":"2024-09-02T02:00","closeTime":"2024-09-02T02:00","mandatoryItems":[],"areas":[{"code":"10","label":"BALCONY","typeCode":"23037__1725242400__1113__3047_BALCONY","sType":"fixed","sAvail":167,"sTotal":265,"price":150.0,"statusColor":"G"},{"code":"20","label":"DRESS CIRCLE","typeCode":"23037__1725242400__1113__3047_DRESS CIRCLE","sType":"fixed","sAvail":28,"sTotal":300,"price":110.0,"statusColor":"R"},{"code":"30","label":"FIRST CLASS","typeCode":"23037__1725242400__1113__3047_FIRST CLASS","sType":"fixed","sAvail":0,"sTotal":125,"price":80.0,"statusColor":"D"},{"code":"31","label":"LOWER CLASS","typeCode":"23037__1725242400__1113__3047_LOWER CLASS","sType":"fixed","sAvail":0,"sTotal":158,"price":50.0,"statusColor":"D"}],"total":848,"avail":195,"audi":"Sampurna 70MM 2K","premium":0,"tFeePkupTime":0,"sType":0,"tFee":0,"grpSeats":0,"maxTkt":6,"lang":"Telugu","scrnFmt":"2D","gnrs":["Drama"],"statusColor":"Y","subtitle":""},{"sid":"23037__1725291900__1113__3051","pid":981,"pkey":"ticketnew","cid":7543,"mid":"OB104Y","fid":"O0GvByvMx","showTime":"2024-09-02T15:45","closeTime":"2024-09-02T15:45","mandatoryItems":[],"areas":[{"code":"10","label":"BALCONY","typeCode":"23037__1725291900__1113__3051_BALCONY","sType":"fixed","sAvail":230,"sTotal":265,"price":150.0,"statusColor":"G"},{"code":"20","label":"DRESS CIRCLE","typeCode":"23037__1725291900__1113__3051_DRESS CIRCLE","sType":"fixed","sAvail":221,"sTotal":300,"price":110.0,"statusColor":"G"},{"code":"30","label":"FIRST CLASS","typeCode":"23037__1725291900__1113__3051_FIRST CLASS","sType":"fixed","sAvail":0,"sTotal":125,"price":80.0,"statusColor":"D"},{"code":"31","label":"LOWER CLASS","typeCode":"23037__1725291900__1113__3051_LOWER CLASS","sType":"fixed","sAvail":0,"sTotal":158,"price":50.0,"statusColor":"D"}],"total":848,"avail":451,"audi":"Sampurna 70MM 2K","premium":0,"tFeePkupTime":0,"sType":0,"tFee":0,"grpSeats":0,"maxTkt":6,"lang":"Telugu","scrnFmt":"2D","gnrs":["Drama"],"statusColor":"G","subtitle":""},{"sid":"23037__1725255000__1113__3048","pid":981,"pkey":"ticketnew","cid":7543,"mid":"OB104Y","fid":"O0GvByvMx","showTime":"2024-09-02T05:30","closeTime":"2024-09-02T05:30","mandatoryItems":[],"areas":[{"code":"10","label":"BALCONY","typeCode":"23037__1725255000__1113__3048_BALCONY","sType":"fixed","sAvail":238,"sTotal":265,"price":150.0,"statusColor":"G"},{"code":"20","label":"DRESS CIRCLE","typeCode":"23037__1725255000__1113__3048_DRESS CIRCLE","sType":"fixed","sAvail":232,"sTotal":300,"price":110.0,"statusColor":"G"},{"code":"30","label":"FIRST CLASS","typeCode":"23037__1725255000__1113__3048_FIRST CLASS","sType":"fixed","sAvail":0,"sTotal":125,"price":80.0,"statusColor":"D"},{"code":"31","label":"LOWER CLASS","typeCode":"23037__1725255000__1113__3048_LOWER CLASS","sType":"fixed","sAvail":0,"sTotal":158,"price":50.0,"statusColor":"D"}],"total":848,"avail":470,"audi":"Sampurna 70MM 2K","premium":0,"tFeePkupTime":0,"sType":0,"tFee":0,"grpSeats":0,"maxTkt":6,"lang":"Telugu","scrnFmt":"2D","gnrs":["Drama"],"statusColor":"G","subtitle":""},{"sid":"23037__1725280200__1113__3050","pid":981,"pkey":"ticketnew","cid":7543,"mid":"OB104Y","fid":"O0GvByvMx","showTime":"2024-09-02T12:30","closeTime":"2024-09-02T12:30","mandatoryItems":[],"areas":[{"code":"10","label":"BALCONY","typeCode":"23037__1725280200__1113__3050_BALCONY","sType":"fixed","sAvail":246,"sTotal":265,"price":150.0,"statusColor":"G"},{"code":"20","label":"DRESS CIRCLE","typeCode":"23037__1725280200__1113__3050_DRESS CIRCLE","sType":"fixed","sAvail":257,"sTotal":300,"price":110.0,"statusColor":"G"},{"code":"30","label":"FIRST CLASS","typeCode":"23037__1725280200__1113__3050_FIRST CLASS","sType":"fixed","sAvail":0,"sTotal":125,"price":80.0,"statusColor":"D"},{"code":"31","label":"LOWER CLASS","typeCode":"23037__1725280200__1113__3050_LOWER CLASS","sType":"fixed","sAvail":0,"sTotal":158,"price":50.0,"statusColor":"D"}],"total":848,"avail":503,"audi":"Sampurna 70MM 2K","premium":0,"tFeePkupTime":0,"sType":0,"tFee":0,"grpSeats":0,"maxTkt":6,"lang":"Telugu","scrnFmt":"2D","gnrs":["Drama"],"statusColor":"G","subtitle":""},{"sid":"23037__1725266700__1113__3049","pid":981,"pkey":"ticketnew","cid":7543,"mid":"OB104Y","fid":"O0GvByvMx","showTime":"2024-09-02T08:45","closeTime":"2024-09-02T08:45","mandatoryItems":[],"areas":[{"code":"10","label":"BALCONY","typeCode":"23037__1725266700__1113__3049_BALCONY","sType":"fixed","sAvail":262,"sTotal":265,"price":150.0,"statusColor":"G"},{"code":"20","label":"DRESS CIRCLE","typeCode":"23037__1725266700__1113__3049_DRESS CIRCLE","sType":"fixed","sAvail":282,"sTotal":300,"price":110.0,"statusColor":"G"},{"code":"30","label":"FIRST CLASS","typeCode":"23037__1725266700__1113__3049_FIRST CLASS","sType":"fixed","sAvail":0,"sTotal":125,"price":80.0,"statusColor":"D"},{"code":"31","label":"LOWER CLASS","typeCode":"23037__1725266700__1113__3049_LOWER CLASS","sType":"fixed","sAvail":0,"sTotal":158,"price":50.0,"statusColor":"D"}],"total":848,"avail":544,"audi":"Sampurna 70MM 2K","premium":0,"tFeePkupTime":0,"sType":0,"tFee":0,"grpSeats":0,"maxTkt":6,"lang":"Telugu","scrnFmt":"2D","gnrs":["Drama"],"statusColor":"G","subtitle":""}],"183":[{"sid":"56588","pid":3,"pkey":"miraj","cid":183,"mid":"OB104Y","fid":"O0GvByvMx","showTime":"2024-09-02T17:00","closeTime":"2024-09-02T16:59","mandatoryItems":[],"areas":[{"code":"0000000002","label":"EXECUTIVE","typeCode":"0004","sType":"fixed","sAvail":423,"sTotal":426,"price":200.0,"statusColor":"G"},{"code":"0000000001","label":"GOLD","typeCode":"0001","sType":"fixed","sAvail":22,"sTotal":28,"price":300.0,"statusColor":"G"}],"total":454,"avail":445,"audi":"SCREEN 2","premium":0,"tFeePkupTime":0,"sType":0,"tFee":0,"grpSeats":0,"maxTkt":6,"lang":"Telugu","scrnFmt":"2D","gnrs":["Drama"],"statusColor":"G","subtitle":""}],"24951":[{"sid":"15085","pid":3,"pkey":"miraj","cid":24951,"mid":"OB104Y","fid":"O0GvByvMx","showTime":"2024-09-02T17:30","closeTime":"2024-09-02T17:29","mandatoryItems":[],"areas":[{"code":"0000000006","label":"EXECUTIVEP","typeCode":"0013","sType":"fixed","sAvail":272,"sTotal":272,"price":175.0,"statusColor":"G"},{"code":"0000000001","label":"GOLD","typeCode":"0002","sType":"fixed","sAvail":22,"sTotal":22,"price":235.0,"statusColor":"G"},{"code":"0000000004","label":"EXECUTIVE","typeCode":"0005","sType":"fixed","sAvail":393,"sTotal":408,"price":175.0,"statusColor":"G"}],"total":702,"avail":687,"audi":"SCREEN 1","premium":0,"tFeePkupTime":0,"sType":0,"tFee":0,"grpSeats":0,"maxTkt":6,"lang":"Telugu","scrnFmt":"2D","gnrs":["Drama"],"statusColor":"G","subtitle":""}],"1022263":[{"sid":"5612","pid":1707,"pkey":"showbizz","cid":1022263,"mid":"OB104Y","fid":"O0GvByvMx","showTime":"2024-09-02T17:10","closeTime":"2024-09-02T17:09","mandatoryItems":[],"areas":[{"code":"CC","label":"CLASSIC","typeCode":"5612_CC","sType":"fixed","sAvail":116,"sTotal":118,"price":200.0,"statusColor":"G"}],"total":118,"avail":116,"audi":"SCREEN 1","premium":0,"tFeePkupTime":0,"sType":0,"tFee":0,"grpSeats":0,"maxTkt":6,"lang":"Telugu","scrnFmt":"2D","gnrs":["Drama"],"statusColor":"G"}],"1977":[{"sid":"82156","pid":335,"pkey":"vista_common_food","cid":1977,"mid":"OB104Y","fid":"O0GvByvMx","showTime":"2024-09-02T05:30","closeTime":"2024-09-02T05:29","mandatoryItems":[],"areas":[{"code":"0000000000","label":"NORMAL","typeCode":"0002","sType":"fixed","sAvail":187,"sTotal":193,"price":200.0,"statusColor":"G"},{"code":"0000000003","label":"VIP","typeCode":"0004","sType":"fixed","sAvail":7,"sTotal":12,"price":300.0,"statusColor":"G"}],"total":205,"avail":194,"audi":"AUDI 2","premium":0,"premiumLabel":"DOLBY 7.1","tFeePkupTime":0,"sType":0,"tFee":0,"grpSeats":0,"maxTkt":6,"lang":"Telugu","scrnFmt":"2D","gnrs":["Drama"],"statusColor":"G","subtitle":""},{"sid":"82225","pid":335,"pkey":"vista_common_food","cid":1977,"mid":"OB104Y","fid":"O0GvByvMx","showTime":"2024-09-02T14:30","closeTime":"2024-09-02T14:29","mandatoryItems":[],"areas":[{"code":"0000000000","label":"NORMAL","typeCode":"0002","sType":"fixed","sAvail":145,"sTotal":145,"price":200.0,"statusColor":"G"},{"code":"0000000003","label":"VIP","typeCode":"0004","sType":"fixed","sAvail":8,"sTotal":11,"price":300.0,"statusColor":"G"}],"total":156,"avail":153,"audi":"AUDI 3","premium":0,"premiumLabel":"DOLBY 7.1","tFeePkupTime":0,"sType":0,"tFee":0,"grpSeats":0,"maxTkt":6,"lang":"Telugu","scrnFmt":"2D","gnrs":["Drama"],"statusColor":"G","subtitle":""},{"sid":"82224","pid":335,"pkey":"vista_common_food","cid":1977,"mid":"OB104Y","fid":"O0GvByvMx","showTime":"2024-09-02T17:35","closeTime":"2024-09-02T17:34","mandatoryItems":[],"areas":[{"code":"0000000000","label":"NORMAL","typeCode":"0002","sType":"fixed","sAvail":143,"sTotal":145,"price":200.0,"statusColor":"G"},{"code":"0000000003","label":"VIP","typeCode":"0004","sType":"fixed","sAvail":11,"sTotal":11,"price":300.0,"statusColor":"G"}],"total":156,"avail":154,"audi":"AUDI 3","premium":0,"premiumLabel":"DOLBY 7.1","tFeePkupTime":0,"sType":0,"tFee":0,"grpSeats":0,"maxTkt":6,"lang":"Telugu","scrnFmt":"2D","gnrs":["Drama"],"statusColor":"G","subtitle":""}],"1020278":[{"sid":"23037__1725244200__5842__128","pid":736,"pkey":"ticketnew","cid":1020278,"mid":"OB104Y","fid":"O0GvByvMx","showTime":"2024-09-02T02:30","closeTime":"2024-09-02T02:30","mandatoryItems":[],"areas":[{"code":"1","label":"PLATINUM(RECLINERS)","typeCode":"23037__1725244200__5842__128_PLATINUM(RECLINERS)","sType":"fixed","sAvail":0,"sTotal":26,"price":235.0,"statusColor":"D"},{"code":"2","label":"GOLD","typeCode":"23037__1725244200__5842__128_GOLD","sType":"fixed","sAvail":208,"sTotal":502,"price":175.0,"statusColor":"G"},{"code":"3","label":"SILVER","typeCode":"23037__1725244200__5842__128_SILVER","sType":"fixed","sAvail":3,"sTotal":173,"price":150.0,"statusColor":"R"},{"code":"4","label":"EXECUTIVE","typeCode":"23037__1725244200__5842__128_EXECUTIVE","sType":"fixed","sAvail":0,"sTotal":144,"price":55.0,"statusColor":"D"}],"total":845,"avail":211,"audi":"MYTHRI THEATRES VIMAL-70MM-AC-4K LASER-DOLBY ","premium":0,"premiumLabel":"DOLBY ATMOS","tFeePkupTime":0,"sType":0,"tFee":0,"grpSeats":0,"maxTkt":10,"lang":"Telugu","scrnFmt":"2D","gnrs":["Drama"],"statusColor":"Y","subtitle":""}],"4346":[{"sid":"23037__1725244200__772__9872","pid":736,"pkey":"ticketnew","cid":4346,"mid":"OB104Y","fid":"O0GvByvMx","showTime":"2024-09-02T02:30","closeTime":"2024-09-02T02:30","mandatoryItems":[],"areas":[{"code":"10","label":"BALCONY","typeCode":"23037__1725244200__772__9872_BALCONY","sType":"fixed","sAvail":243,"sTotal":223,"price":150.0,"statusColor":"G"},{"code":"20","label":"RAJA CIRCLE","typeCode":"23037__1725244200__772__9872_RAJA CIRCLE","sType":"fixed","sAvail":80,"sTotal":124,"price":100.0,"statusColor":"G"}],"total":347,"avail":323,"audi":"SUPER 70MM","premium":0,"tFeePkupTime":0,"sType":0,"tFee":0,"grpSeats":0,"maxTkt":6,"lang":"Telugu","scrnFmt":"2D","gnrs":["Drama"],"statusColor":"G","subtitle":""}],"9338":[{"sid":"29087","pid":3,"pkey":"miraj","cid":9338,"mid":"OB104Y","fid":"O0GvByvMx","showTime":"2024-09-02T17:00","closeTime":"2024-09-02T16:59","mandatoryItems":[],"areas":[{"code":"0000000002","label":"EXECUTIVE","typeCode":"0004","sType":"fixed","sAvail":259,"sTotal":262,"price":200.0,"statusColor":"G"},{"code":"0000000001","label":"GOLD","typeCode":"0001","sType":"fixed","sAvail":25,"sTotal":25,"price":300.0,"statusColor":"G"}],"total":287,"avail":284,"audi":"SCREEN 3","premium":0,"tFeePkupTime":0,"sType":0,"tFee":0,"grpSeats":0,"maxTkt":6,"lang":"Telugu","scrnFmt":"2D","gnrs":["Drama"],"statusColor":"G","subtitle":""}],"4348":[{"sid":"23037__1725255000__800__5702","pid":736,"pkey":"ticketnew","cid":4348,"mid":"OB104Y","fid":"O0GvByvMx","showTime":"2024-09-02T05:30","closeTime":"2024-09-02T05:25","mandatoryItems":[],"areas":[{"code":"10","label":"BOX","typeCode":"23037__1725255000__800__5702_BOX","sType":"fixed","sAvail":0,"sTotal":0,"price":150.0,"statusColor":"D"},{"code":"20","label":"BALCONY","typeCode":"23037__1725255000__800__5702_BALCONY","sType":"fixed","sAvail":31,"sTotal":195,"price":150.0,"statusColor":"Y"},{"code":"30","label":"FIRST CLASS","typeCode":"23037__1725255000__800__5702_FIRST CLASS","sType":"fixed","sAvail":0,"sTotal":156,"price":100.0,"statusColor":"D"},{"code":"40","label":"SECOND CLASS","typeCode":"23037__1725255000__800__5702_SECOND CLASS","sType":"fixed","sAvail":0,"sTotal":0,"price":50.0,"statusColor":"D"}],"total":351,"avail":31,"audi":"Bujanga theatre","premium":0,"tFeePkupTime":0,"sType":0,"tFee":0,"grpSeats":0,"maxTkt":6,"lang":"Telugu","scrnFmt":"2D","gnrs":["Drama"],"statusColor":"R","subtitle":""},{"sid":"23037__1725291000__800__5705","pid":736,"pkey":"ticketnew","cid":4348,"mid":"OB104Y","fid":"O0GvByvMx","showTime":"2024-09-02T15:30","closeTime":"2024-09-02T15:25","mandatoryItems":[],"areas":[{"code":"10","label":"BOX","typeCode":"23037__1725291000__800__5705_BOX","sType":"fixed","sAvail":0,"sTotal":0,"price":150.0,"statusColor":"D"},{"code":"20","label":"BALCONY","typeCode":"23037__1725291000__800__5705_BALCONY","sType":"fixed","sAvail":166,"sTotal":195,"price":150.0,"statusColor":"G"},{"code":"30","label":"FIRST CLASS","typeCode":"23037__1725291000__800__5705_FIRST CLASS","sType":"fixed","sAvail":5,"sTotal":156,"price":100.0,"statusColor":"R"},{"code":"40","label":"SECOND CLASS","typeCode":"23037__1725291000__800__5705_SECOND CLASS","sType":"fixed","sAvail":0,"sTotal":0,"price":50.0,"statusColor":"D"}],"total":351,"avail":171,"audi":"Bujanga theatre","premium":0,"tFeePkupTime":0,"sType":0,"tFee":0,"grpSeats":0,"maxTkt":6,"lang":"Telugu","scrnFmt":"2D","gnrs":["Drama"],"statusColor":"G","subtitle":""},{"sid":"23037__1725265800__800__5703","pid":736,"pkey":"ticketnew","cid":4348,"mid":"OB104Y","fid":"O0GvByvMx","showTime":"2024-09-02T08:30","closeTime":"2024-09-02T08:25","mandatoryItems":[],"areas":[{"code":"10","label":"BOX","typeCode":"23037__1725265800__800__5703_BOX","sType":"fixed","sAvail":0,"sTotal":0,"price":150.0,"statusColor":"D"},{"code":"20","label":"BALCONY","typeCode":"23037__1725265800__800__5703_BALCONY","sType":"fixed","sAvail":113,"sTotal":195,"price":150.0,"statusColor":"G"},{"code":"30","label":"FIRST CLASS","typeCode":"23037__1725265800__800__5703_FIRST CLASS","sType":"fixed","sAvail":93,"sTotal":156,"price":100.0,"statusColor":"G"},{"code":"40","label":"SECOND CLASS","typeCode":"23037__1725265800__800__5703_SECOND CLASS","sType":"fixed","sAvail":0,"sTotal":0,"price":50.0,"statusColor":"D"}],"total":351,"avail":206,"audi":"Bujanga theatre","premium":0,"tFeePkupTime":0,"sType":0,"tFee":0,"grpSeats":0,"maxTkt":6,"lang":"Telugu","scrnFmt":"2D","gnrs":["Drama"],"statusColor":"G","subtitle":""},{"sid":"23037__1725280200__800__5704","pid":736,"pkey":"ticketnew","cid":4348,"mid":"OB104Y","fid":"O0GvByvMx","showTime":"2024-09-02T12:30","closeTime":"2024-09-02T12:25","mandatoryItems":[],"areas":[{"code":"10","label":"BOX","typeCode":"23037__1725280200__800__5704_BOX","sType":"fixed","sAvail":0,"sTotal":0,"price":150.0,"statusColor":"D"},{"code":"20","label":"BALCONY","typeCode":"23037__1725280200__800__5704_BALCONY","sType":"fixed","sAvail":76,"sTotal":195,"price":150.0,"statusColor":"Y"},{"code":"30","label":"FIRST CLASS","typeCode":"23037__1725280200__800__5704_FIRST CLASS","sType":"fixed","sAvail":0,"sTotal":156,"price":100.0,"statusColor":"D"},{"code":"40","label":"SECOND CLASS","typeCode":"23037__1725280200__800__5704_SECOND CLASS","sType":"fixed","sAvail":0,"sTotal":0,"price":50.0,"statusColor":"D"}],"total":351,"avail":76,"audi":"Bujanga theatre","premium":0,"tFeePkupTime":0,"sType":0,"tFee":0,"grpSeats":0,"maxTkt":6,"lang":"Telugu","scrnFmt":"2D","gnrs":["Drama"],"statusColor":"Y","subtitle":""},{"sid":"23037__1725244200__800__5701","pid":736,"pkey":"ticketnew","cid":4348,"mid":"OB104Y","fid":"O0GvByvMx","showTime":"2024-09-02T02:30","closeTime":"2024-09-02T02:25","mandatoryItems":[],"areas":[{"code":"10","label":"BOX","typeCode":"23037__1725244200__800__5701_BOX","sType":"fixed","sAvail":0,"sTotal":0,"price":150.0,"statusColor":"D"},{"code":"20","label":"BALCONY","typeCode":"23037__1725244200__800__5701_BALCONY","sType":"fixed","sAvail":0,"sTotal":195,"price":150.0,"statusColor":"D"},{"code":"30","label":"FIRST CLASS","typeCode":"23037__1725244200__800__5701_FIRST CLASS","sType":"fixed","sAvail":0,"sTotal":156,"price":100.0,"statusColor":"D"},{"code":"40","label":"SECOND CLASS","typeCode":"23037__1725244200__800__5701_SECOND CLASS","sType":"fixed","sAvail":0,"sTotal":0,"price":50.0,"statusColor":"D"}],"total":351,"avail":0,"audi":"Bujanga theatre","lang":"Telugu","scrnFmt":"2D","gnrs":["Drama"],"statusColor":"D","subtitle":""}],"124":[{"sid":"63480","pid":335,"pkey":"vista_common_food","cid":124,"mid":"OB104Y","fid":"O0GvByvMx","showTime":"2024-09-02T10:45","closeTime":"2024-09-02T10:44","mandatoryItems":[],"areas":[{"code":"0000000003","label":"VIP","typeCode":"0007","sType":"fixed","sAvail":27,"sTotal":28,"price":300.0,"statusColor":"G"},{"code":"0000000000","label":"NORMAL","typeCode":"0002","sType":"fixed","sAvail":237,"sTotal":255,"price":200.0,"statusColor":"G"}],"total":283,"avail":264,"audi":"AUDI 02","premium":0,"premiumLabel":"DOLBY 7.1","tFeePkupTime":0,"sType":0,"tFee":0,"grpSeats":0,"maxTkt":6,"lang":"Telugu","scrnFmt":"2D","gnrs":["Drama"],"statusColor":"G","subtitle":""},{"sid":"63481","pid":335,"pkey":"vista_common_food","cid":124,"mid":"OB104Y","fid":"O0GvByvMx","showTime":"2024-09-02T14:30","closeTime":"2024-09-02T14:29","mandatoryItems":[],"areas":[{"code":"0000000000","label":"NORMAL","typeCode":"0002","sType":"fixed","sAvail":182,"sTotal":215,"price":200.0,"statusColor":"G"},{"code":"0000000003","label":"VIP","typeCode":"0007","sType":"fixed","sAvail":24,"sTotal":28,"price":300.0,"statusColor":"G"}],"total":243,"avail":206,"audi":"AUDI 01","premium":0,"premiumLabel":"DOLBY 7.1","tFeePkupTime":0,"sType":0,"tFee":0,"grpSeats":0,"maxTkt":6,"lang":"Telugu","scrnFmt":"2D","gnrs":["Drama"],"statusColor":"G","subtitle":""},{"sid":"63479","pid":335,"pkey":"vista_common_food","cid":124,"mid":"OB104Y","fid":"O0GvByvMx","showTime":"2024-09-02T07:40","closeTime":"2024-09-02T07:39","mandatoryItems":[],"areas":[{"code":"0000000003","label":"VIP","typeCode":"0007","sType":"fixed","sAvail":28,"sTotal":28,"price":300.0,"statusColor":"G"},{"code":"0000000000","label":"NORMAL","typeCode":"0002","sType":"fixed","sAvail":241,"sTotal":255,"price":200.0,"statusColor":"G"}],"total":283,"avail":269,"audi":"AUDI 02","premium":0,"premiumLabel":"DOLBY 7.1","tFeePkupTime":0,"sType":0,"tFee":0,"grpSeats":0,"maxTkt":6,"lang":"Telugu","scrnFmt":"2D","gnrs":["Drama"],"statusColor":"G","subtitle":""},{"sid":"63477","pid":335,"pkey":"vista_common_food","cid":124,"mid":"OB104Y","fid":"O0GvByvMx","showTime":"2024-09-02T17:45","closeTime":"2024-09-02T17:44","mandatoryItems":[],"areas":[{"code":"0000000000","label":"NORMAL","typeCode":"0002","sType":"fixed","sAvail":206,"sTotal":215,"price":200.0,"statusColor":"G"},{"code":"0000000003","label":"VIP","typeCode":"0007","sType":"fixed","sAvail":26,"sTotal":28,"price":300.0,"statusColor":"G"}],"total":243,"avail":232,"audi":"AUDI 01","premium":0,"premiumLabel":"DOLBY 7.1","tFeePkupTime":0,"sType":0,"tFee":0,"grpSeats":0,"maxTkt":6,"lang":"Telugu","scrnFmt":"2D","gnrs":["Drama"],"statusColor":"G","subtitle":""},{"sid":"63458","pid":335,"pkey":"vista_common_food","cid":124,"mid":"OB104Y","fid":"O0GvByvMx","showTime":"2024-09-02T04:30","closeTime":"2024-09-02T04:29","mandatoryItems":[],"areas":[{"code":"0000000003","label":"VIP","typeCode":"0007","sType":"fixed","sAvail":6,"sTotal":28,"price":300.0,"statusColor":"Y"},{"code":"0000000000","label":"NORMAL","typeCode":"0002","sType":"fixed","sAvail":113,"sTotal":255,"price":200.0,"statusColor":"G"}],"total":283,"avail":119,"audi":"AUDI 02","premium":0,"premiumLabel":"DOLBY 7.1","tFeePkupTime":0,"sType":0,"tFee":0,"grpSeats":0,"maxTkt":6,"lang":"Telugu","scrnFmt":"2D","gnrs":["Drama"],"statusColor":"G","subtitle":""}],"126":[{"sid":"86715","pid":335,"pkey":"vista_common_food","cid":126,"mid":"OB104Y","fid":"O0GvByvMx","showTime":"2024-09-02T14:00","closeTime":"2024-09-02T13:59","mandatoryItems":[],"areas":[{"code":"0000000002","label":"EXECUTIVE","typeCode":"0001","sType":"fixed","sAvail":18,"sTotal":18,"price":180.0,"statusColor":"G"},{"code":"0000000001","label":"PREMIUM","typeCode":"0003","sType":"fixed","sAvail":86,"sTotal":88,"price":200.0,"statusColor":"G"}],"total":106,"avail":104,"audi":"AUDI 1","premium":0,"premiumLabel":"DOLBY 7.1","tFeePkupTime":0,"sType":0,"tFee":0,"grpSeats":0,"maxTkt":6,"lang":"Telugu","scrnFmt":"2D","gnrs":["Drama"],"statusColor":"G","subtitle":""},{"sid":"86694","pid":335,"pkey":"vista_common_food","cid":126,"mid":"OB104Y","fid":"O0GvByvMx","showTime":"2024-09-02T05:05","closeTime":"2024-09-02T05:04","mandatoryItems":[],"areas":[{"code":"0000000002","label":"EXECUTIVE","typeCode":"0001","sType":"fixed","sAvail":22,"sTotal":22,"price":180.0,"statusColor":"G"},{"code":"0000000001","label":"PREMIUM","typeCode":"0003","sType":"fixed","sAvail":97,"sTotal":109,"price":200.0,"statusColor":"G"}],"total":131,"avail":119,"audi":"AUDI 2","premium":0,"premiumLabel":"DOLBY 7.1","tFeePkupTime":0,"sType":0,"tFee":0,"grpSeats":0,"maxTkt":6,"lang":"Telugu","scrnFmt":"2D","gnrs":["Drama"],"statusColor":"G","subtitle":""}],"1022256":[{"sid":"2691","pid":1707,"pkey":"showbizz","cid":1022256,"mid":"OB104Y","fid":"O0GvByvMx","showTime":"2024-09-02T17:10","closeTime":"2024-09-02T17:09","mandatoryItems":[],"areas":[{"code":"CC","label":"CLASSIC","typeCode":"2691_CC","sType":"fixed","sAvail":210,"sTotal":211,"price":200.0,"statusColor":"G"},{"code":"RE","label":"RECLINER","typeCode":"2691_RE","sType":"fixed","sAvail":8,"sTotal":8,"price":300.0,"statusColor":"G"}],"total":219,"avail":218,"audi":"SCREEN 2","premium":0,"tFeePkupTime":0,"sType":0,"tFee":0,"grpSeats":0,"maxTkt":6,"lang":"Telugu","scrnFmt":"2D","gnrs":["Drama"],"statusColor":"G"}]}}}